<?xml version="1.0" encoding="UTF-8" standalone="no" ?>
<gpx xmlns="http://www.topografix.com/GPX/1/1" creator="byHand" version="1.1" xmlns:xsi="http://www.w3.org/2001/XMLSchema-instance" xsi:schemaLocation="http://www.topografix.com/GPX/1/1 http://www.topografix.com/GPX/1/1/gpx.xsd">

<wpt lat='32.87034' lon='-3.81261'>
<ele></ele>
<time>2007-09-13 18:17:00</time>
<desc></desc>
<name>kehf ghnigat</name>
<sym>Flag, Blue</sym>
</wpt>

<wpt lat='32.87034' lon='-3.81261'>
<ele></ele>
<time>2007-09-13 18:17:00</time>
<desc></desc>
<name>kehf ghnigat</name>
<sym>Flag, Blue</sym>
</wpt>

<wpt lat='32.87034' lon='-3.81261'>
<ele></ele>
<time>2007-09-13 18:17:00</time>
<desc></desc>
<name>kehf ghnigat</name>
<sym>Flag, Blue</sym>
</wpt>

<wpt lat='32.87034' lon='-3.81261'>
<ele></ele>
<time>2007-09-13 18:17:00</time>
<desc></desc>
<name>kehf ghnigat</name>
<sym>Flag, Blue</sym>
</wpt>

<wpt lat='33.11286' lon='-4.35960'>
<ele></ele>
<time>2007-06-06 19:15:00</time>
<desc></desc>
<name>kehf almou</name>
<sym>Flag, Blue</sym>
</wpt>

<wpt lat='33.11286' lon='-4.35960'>
<ele></ele>
<time>2007-06-06 19:15:00</time>
<desc></desc>
<name>kehf almou</name>
<sym>Flag, Blue</sym>
</wpt>

<wpt lat='33.11286' lon='-4.35960'>
<ele></ele>
<time>2007-06-06 19:15:00</time>
<desc></desc>
<name>kehf almou</name>
<sym>Flag, Blue</sym>
</wpt>

<wpt lat='33.11286' lon='-4.35960'>
<ele></ele>
<time>2007-06-06 19:15:00</time>
<desc></desc>
<name>kehf almou</name>
<sym>Flag, Blue</sym>
</wpt>

<wpt lat='33.11286' lon='-4.35960'>
<ele></ele>
<time>2007-06-06 19:15:00</time>
<desc></desc>
<name>kehf almou</name>
<sym>Flag, Blue</sym>
</wpt>

<wpt lat='33.11286' lon='-4.35960'>
<ele></ele>
<time>2007-06-06 19:15:00</time>
<desc></desc>
<name>kehf almou</name>
<sym>Flag, Blue</sym>
</wpt>

<wpt lat='33.11286' lon='-4.35960'>
<ele></ele>
<time>2007-06-06 19:15:00</time>
<desc></desc>
<name>kehf almou</name>
<sym>Flag, Blue</sym>
</wpt>

<wpt lat='33.11286' lon='-4.35960'>
<ele></ele>
<time>2007-06-06 19:15:00</time>
<desc></desc>
<name>kehf almou</name>
<sym>Flag, Blue</sym>
</wpt>

<wpt lat='33.11286' lon='-4.35960'>
<ele></ele>
<time>2007-06-06 19:15:00</time>
<desc></desc>
<name>kehf almou</name>
<sym>Flag, Blue</sym>
</wpt>

<wpt lat='33.11286' lon='-4.35960'>
<ele></ele>
<time>2007-06-06 19:15:00</time>
<desc></desc>
<name>kehf almou</name>
<sym>Flag, Blue</sym>
</wpt>

<wpt lat='33.11286' lon='-4.35960'>
<ele></ele>
<time>2007-06-06 19:15:00</time>
<desc></desc>
<name>kehf almou</name>
<sym>Flag, Blue</sym>
</wpt>

<wpt lat='33.11286' lon='-4.35960'>
<ele></ele>
<time>2007-06-07 00:00:00</time>
<desc></desc>
<name>kehf almou</name>
<sym>Flag, Blue</sym>
</wpt>

<wpt lat='33.11286' lon='-4.35960'>
<ele></ele>
<time>2007-06-07 00:00:00</time>
<desc></desc>
<name>kehf almou</name>
<sym>Flag, Blue</sym>
</wpt>

<wpt lat='33.11286' lon='-4.35960'>
<ele></ele>
<time>2007-06-07 00:00:00</time>
<desc></desc>
<name>kehf almou</name>
<sym>Flag, Blue</sym>
</wpt>

<wpt lat='33.11286' lon='-4.35960'>
<ele></ele>
<time>2007-06-07 00:00:00</time>
<desc></desc>
<name>kehf almou</name>
<sym>Flag, Blue</sym>
</wpt>

<wpt lat='33.11286' lon='-4.35960'>
<ele></ele>
<time>2007-06-07 00:00:00</time>
<desc></desc>
<name>kehf almou</name>
<sym>Flag, Blue</sym>
</wpt>

<wpt lat='33.11286' lon='-4.35960'>
<ele></ele>
<time>2007-06-07 00:00:00</time>
<desc></desc>
<name>kehf almou</name>
<sym>Flag, Blue</sym>
</wpt>

<wpt lat='33.11286' lon='-4.35960'>
<ele></ele>
<time>2007-06-07 00:00:00</time>
<desc></desc>
<name>kehf almou</name>
<sym>Flag, Blue</sym>
</wpt>

<wpt lat='33.11286' lon='-4.35960'>
<ele></ele>
<time>2007-06-07 00:00:00</time>
<desc></desc>
<name>kehf almou</name>
<sym>Flag, Blue</sym>
</wpt>

<wpt lat='33.11286' lon='-4.35960'>
<ele></ele>
<time>2007-06-07 00:00:00</time>
<desc></desc>
<name>kehf almou</name>
<sym>Flag, Blue</sym>
</wpt>

<wpt lat='32.56750' lon='-1.95303'>
<ele></ele>
<time>2008-06-12 19:18:00</time>
<desc></desc>
<name>mine bouarfa</name>
<sym>Flag, Blue</sym>
</wpt>

<wpt lat='32.56750' lon='-1.95303'>
<ele></ele>
<time>2008-06-12 19:18:00</time>
<desc></desc>
<name>mine bouarfa</name>
<sym>Flag, Blue</sym>
</wpt>

<wpt lat='32.56750' lon='-1.95303'>
<ele></ele>
<time>2008-06-12 19:18:00</time>
<desc></desc>
<name>mine bouarfa</name>
<sym>Flag, Blue</sym>
</wpt>

<wpt lat='32.56750' lon='-1.95303'>
<ele></ele>
<time>2008-06-12 19:18:00</time>
<desc></desc>
<name>mine bouarfa</name>
<sym>Flag, Blue</sym>
</wpt>

<wpt lat='32.56750' lon='-1.95303'>
<ele></ele>
<time>2008-06-12 19:18:00</time>
<desc></desc>
<name>mine bouarfa</name>
<sym>Flag, Blue</sym>
</wpt>

<wpt lat='32.56750' lon='-1.95303'>
<ele></ele>
<time>2008-06-12 19:18:00</time>
<desc></desc>
<name>mine bouarfa</name>
<sym>Flag, Blue</sym>
</wpt>

<wpt lat='32.56750' lon='-1.95303'>
<ele></ele>
<time>2008-06-12 19:18:00</time>
<desc></desc>
<name>mine bouarfa</name>
<sym>Flag, Blue</sym>
</wpt>

<wpt lat='32.56750' lon='-1.95303'>
<ele></ele>
<time>2008-06-12 19:18:00</time>
<desc></desc>
<name>mine bouarfa</name>
<sym>Flag, Blue</sym>
</wpt>

<wpt lat='32.56750' lon='-1.95303'>
<ele></ele>
<time>2008-06-12 19:18:00</time>
<desc></desc>
<name>mine bouarfa</name>
<sym>Flag, Blue</sym>
</wpt>

<wpt lat='32.56750' lon='-1.95303'>
<ele></ele>
<time>2008-06-12 19:18:00</time>
<desc></desc>
<name>mine bouarfa</name>
<sym>Flag, Blue</sym>
</wpt>

<wpt lat='32.56750' lon='-1.95303'>
<ele></ele>
<time>2008-06-13 00:00:00</time>
<desc></desc>
<name>mine bouarfa</name>
<sym>Flag, Blue</sym>
</wpt>

<wpt lat='32.56750' lon='-1.95303'>
<ele></ele>
<time>2008-06-13 00:00:00</time>
<desc></desc>
<name>mine bouarfa</name>
<sym>Flag, Blue</sym>
</wpt>

<wpt lat='32.68407' lon='-2.72386'>
<ele></ele>
<time>2007-06-29 19:22:00</time>
<desc></desc>
<name>nm bel ghiada</name>
<sym>Flag, Blue</sym>
</wpt>

<wpt lat='32.68407' lon='-2.72386'>
<ele></ele>
<time>2007-06-30 00:00:00</time>
<desc></desc>
<name>nm bel ghiada</name>
<sym>Flag, Blue</sym>
</wpt>

<wpt lat='32.68407' lon='-2.72386'>
<ele></ele>
<time>2007-06-30 00:00:00</time>
<desc></desc>
<name>nm bel ghiada</name>
<sym>Flag, Blue</sym>
</wpt>

<wpt lat='32.62139' lon='-3.77602'>
<ele></ele>
<time>2007-06-09 19:16:00</time>
<desc></desc>
<name>mine tamslemt</name>
<sym>Flag, Blue</sym>
</wpt>

<wpt lat='32.62139' lon='-3.77602'>
<ele></ele>
<time>2007-06-09 19:16:00</time>
<desc></desc>
<name>mine tamslemt</name>
<sym>Flag, Blue</sym>
</wpt>

<wpt lat='32.62139' lon='-3.77602'>
<ele></ele>
<time>2007-06-09 19:16:00</time>
<desc></desc>
<name>mine tamslemt</name>
<sym>Flag, Blue</sym>
</wpt>

<wpt lat='32.62139' lon='-3.77602'>
<ele></ele>
<time>2007-06-09 19:16:00</time>
<desc></desc>
<name>mine tamslemt</name>
<sym>Flag, Blue</sym>
</wpt>

<wpt lat='32.62139' lon='-3.77602'>
<ele></ele>
<time>2007-06-10 00:00:00</time>
<desc></desc>
<name>mine tamslemt</name>
<sym>Flag, Blue</sym>
</wpt>

<wpt lat='32.34790' lon='-2.85266'>
<ele></ele>
<time>2007-07-16 19:19:00</time>
<desc></desc>
<name>nm karima</name>
<sym>Flag, Blue</sym>
</wpt>

<wpt lat='32.34790' lon='-2.85266'>
<ele></ele>
<time>2007-07-16 19:19:00</time>
<desc></desc>
<name>nm karima</name>
<sym>Flag, Blue</sym>
</wpt>

<wpt lat='32.34790' lon='-2.85266'>
<ele></ele>
<time>2007-07-16 19:19:00</time>
<desc></desc>
<name>nm karima</name>
<sym>Flag, Blue</sym>
</wpt>

<wpt lat='32.34790' lon='-2.85266'>
<ele></ele>
<time>2007-07-16 19:19:00</time>
<desc></desc>
<name>nm karima</name>
<sym>Flag, Blue</sym>
</wpt>

<wpt lat='32.34790' lon='-2.85266'>
<ele></ele>
<time>2007-07-16 19:19:00</time>
<desc></desc>
<name>nm karima</name>
<sym>Flag, Blue</sym>
</wpt>

<wpt lat='32.34790' lon='-2.85266'>
<ele></ele>
<time>2007-07-16 19:19:00</time>
<desc></desc>
<name>nm karima</name>
<sym>Flag, Blue</sym>
</wpt>

<wpt lat='32.34790' lon='-2.85266'>
<ele></ele>
<time>2007-07-16 19:19:00</time>
<desc></desc>
<name>nm karima</name>
<sym>Flag, Blue</sym>
</wpt>

<wpt lat='32.34790' lon='-2.85266'>
<ele></ele>
<time>2007-07-16 19:19:00</time>
<desc></desc>
<name>nm karima</name>
<sym>Flag, Blue</sym>
</wpt>

<wpt lat='32.34790' lon='-2.85266'>
<ele></ele>
<time>2007-07-16 19:19:00</time>
<desc></desc>
<name>nm karima</name>
<sym>Flag, Blue</sym>
</wpt>

<wpt lat='32.34790' lon='-2.85266'>
<ele></ele>
<time>2007-07-16 19:19:00</time>
<desc></desc>
<name>nm karima</name>
<sym>Flag, Blue</sym>
</wpt>

<wpt lat='32.34790' lon='-2.85266'>
<ele></ele>
<time>2007-07-16 19:19:00</time>
<desc></desc>
<name>nm karima</name>
<sym>Flag, Blue</sym>
</wpt>

<wpt lat='32.34790' lon='-2.85266'>
<ele></ele>
<time>2007-07-16 19:19:00</time>
<desc></desc>
<name>nm karima</name>
<sym>Flag, Blue</sym>
</wpt>

<wpt lat='32.34790' lon='-2.85266'>
<ele></ele>
<time>2007-07-16 19:19:00</time>
<desc></desc>
<name>nm karima</name>
<sym>Flag, Blue</sym>
</wpt>

<wpt lat='32.34790' lon='-2.85266'>
<ele></ele>
<time>2007-07-16 19:19:00</time>
<desc></desc>
<name>nm karima</name>
<sym>Flag, Blue</sym>
</wpt>

<wpt lat='32.34790' lon='-2.85266'>
<ele></ele>
<time>2007-07-16 19:19:00</time>
<desc></desc>
<name>nm karima</name>
<sym>Flag, Blue</sym>
</wpt>

<wpt lat='32.34790' lon='-2.85266'>
<ele></ele>
<time>2007-07-16 19:19:00</time>
<desc></desc>
<name>nm karima</name>
<sym>Flag, Blue</sym>
</wpt>

<wpt lat='32.34790' lon='-2.85266'>
<ele></ele>
<time>2007-07-16 19:19:00</time>
<desc></desc>
<name>nm karima</name>
<sym>Flag, Blue</sym>
</wpt>

<wpt lat='32.34790' lon='-2.85266'>
<ele></ele>
<time>2007-07-16 19:19:00</time>
<desc></desc>
<name>nm karima</name>
<sym>Flag, Blue</sym>
</wpt>

<wpt lat='33.05185' lon='-4.08478'>
<ele></ele>
<time>2008-07-08 19:21:00</time>
<desc></desc>
<name>oued chouf cherg aval</name>
<sym>Flag, Blue</sym>
</wpt>

<wpt lat='33.05185' lon='-4.08478'>
<ele></ele>
<time>2008-07-08 19:21:00</time>
<desc></desc>
<name>oued chouf cherg aval</name>
<sym>Flag, Blue</sym>
</wpt>

<wpt lat='32.36284' lon='-2.49076'>
<ele></ele>
<time>2007-07-03 00:00:00</time>
<desc></desc>
<name>kehf mhessar</name>
<sym>Flag, Blue</sym>
</wpt>

<wpt lat='32.36284' lon='-2.49076'>
<ele></ele>
<time>2007-07-03 00:00:00</time>
<desc></desc>
<name>kehf mhessar</name>
<sym>Flag, Blue</sym>
</wpt>

<wpt lat='32.32772' lon='-2.80664'>
<ele></ele>
<time>2007-07-05 00:00:00</time>
<desc></desc>
<name>nm jbel qob</name>
<sym>Flag, Blue</sym>
</wpt>

<wpt lat='32.32772' lon='-2.80664'>
<ele></ele>
<time>2007-07-05 00:00:00</time>
<desc></desc>
<name>nm jbel qob</name>
<sym>Flag, Blue</sym>
</wpt>

<wpt lat='32.32772' lon='-2.80664'>
<ele></ele>
<time>2007-07-05 00:00:00</time>
<desc></desc>
<name>nm jbel qob</name>
<sym>Flag, Blue</sym>
</wpt>

<wpt lat='32.32772' lon='-2.80664'>
<ele></ele>
<time>2007-07-05 00:00:00</time>
<desc></desc>
<name>nm jbel qob</name>
<sym>Flag, Blue</sym>
</wpt>

<wpt lat='32.32772' lon='-2.80664'>
<ele></ele>
<time>2007-07-05 00:00:00</time>
<desc></desc>
<name>nm jbel qob</name>
<sym>Flag, Blue</sym>
</wpt>

<wpt lat='32.32772' lon='-2.80664'>
<ele></ele>
<time>2007-07-05 00:00:00</time>
<desc></desc>
<name>nm jbel qob</name>
<sym>Flag, Blue</sym>
</wpt>

<wpt lat='32.32772' lon='-2.80664'>
<ele></ele>
<time>2007-07-05 00:00:00</time>
<desc></desc>
<name>nm jbel qob</name>
<sym>Flag, Blue</sym>
</wpt>

<wpt lat='32.32772' lon='-2.80664'>
<ele></ele>
<time>2007-07-05 00:00:00</time>
<desc></desc>
<name>nm jbel qob</name>
<sym>Flag, Blue</sym>
</wpt>

<wpt lat='32.13579' lon='-3.04252'>
<ele></ele>
<time>2008-08-27 00:00:00</time>
<desc></desc>
<name>kehf hmam</name>
<sym>Flag, Blue</sym>
</wpt>

<wpt lat='32.13579' lon='-3.04252'>
<ele></ele>
<time>2008-08-27 00:00:00</time>
<desc></desc>
<name>kehf hmam</name>
<sym>Flag, Blue</sym>
</wpt>

<wpt lat='32.56750' lon='-1.95303'>
<ele></ele>
<time>2007-05-19 19:03:00</time>
<desc></desc>
<name>mine bouarfa</name>
<sym>Flag, Blue</sym>
</wpt>

<wpt lat='32.56750' lon='-1.95303'>
<ele></ele>
<time>2007-05-19 19:03:00</time>
<desc></desc>
<name>mine bouarfa</name>
<sym>Flag, Blue</sym>
</wpt>

<wpt lat='32.56750' lon='-1.95303'>
<ele></ele>
<time>2007-05-19 19:03:00</time>
<desc></desc>
<name>mine bouarfa</name>
<sym>Flag, Blue</sym>
</wpt>

<wpt lat='32.56750' lon='-1.95303'>
<ele></ele>
<time>2007-05-19 19:03:00</time>
<desc></desc>
<name>mine bouarfa</name>
<sym>Flag, Blue</sym>
</wpt>

<wpt lat='32.56750' lon='-1.95303'>
<ele></ele>
<time>2007-05-19 19:03:00</time>
<desc></desc>
<name>mine bouarfa</name>
<sym>Flag, Blue</sym>
</wpt>

<wpt lat='32.56750' lon='-1.95303'>
<ele></ele>
<time>2007-05-19 19:03:00</time>
<desc></desc>
<name>mine bouarfa</name>
<sym>Flag, Blue</sym>
</wpt>

<wpt lat='32.56750' lon='-1.95303'>
<ele></ele>
<time>2007-05-19 19:03:00</time>
<desc></desc>
<name>mine bouarfa</name>
<sym>Flag, Blue</sym>
</wpt>

<wpt lat='32.56750' lon='-1.95303'>
<ele></ele>
<time>2007-05-19 19:03:00</time>
<desc></desc>
<name>mine bouarfa</name>
<sym>Flag, Blue</sym>
</wpt>

<wpt lat='32.56750' lon='-1.95303'>
<ele></ele>
<time>2007-05-19 19:03:00</time>
<desc></desc>
<name>mine bouarfa</name>
<sym>Flag, Blue</sym>
</wpt>

<wpt lat='32.56750' lon='-1.95303'>
<ele></ele>
<time>2007-05-19 19:03:00</time>
<desc></desc>
<name>mine bouarfa</name>
<sym>Flag, Blue</sym>
</wpt>

<wpt lat='32.56750' lon='-1.95303'>
<ele></ele>
<time>2007-05-19 19:03:00</time>
<desc></desc>
<name>mine bouarfa</name>
<sym>Flag, Blue</sym>
</wpt>

<wpt lat='32.56750' lon='-1.95303'>
<ele></ele>
<time>2007-05-19 19:03:00</time>
<desc></desc>
<name>mine bouarfa</name>
<sym>Flag, Blue</sym>
</wpt>

<wpt lat='32.56750' lon='-1.95303'>
<ele></ele>
<time>2007-05-19 19:03:00</time>
<desc></desc>
<name>mine bouarfa</name>
<sym>Flag, Blue</sym>
</wpt>

<wpt lat='32.61308' lon='-2.29591'>
<ele></ele>
<time>2007-07-17 19:18:00</time>
<desc></desc>
<name>nm n'sissa</name>
<sym>Flag, Blue</sym>
</wpt>

<wpt lat='32.61308' lon='-2.29591'>
<ele></ele>
<time>2007-07-17 19:18:00</time>
<desc></desc>
<name>nm n'sissa</name>
<sym>Flag, Blue</sym>
</wpt>

<wpt lat='32.61308' lon='-2.29591'>
<ele></ele>
<time>2007-07-17 19:18:00</time>
<desc></desc>
<name>nm n'sissa</name>
<sym>Flag, Blue</sym>
</wpt>

<wpt lat='32.61308' lon='-2.29591'>
<ele></ele>
<time>2007-07-17 19:18:00</time>
<desc></desc>
<name>nm n'sissa</name>
<sym>Flag, Blue</sym>
</wpt>

<wpt lat='32.61308' lon='-2.29591'>
<ele></ele>
<time>2007-07-17 19:18:00</time>
<desc></desc>
<name>nm n'sissa</name>
<sym>Flag, Blue</sym>
</wpt>

<wpt lat='32.61308' lon='-2.29591'>
<ele></ele>
<time>2007-07-17 19:18:00</time>
<desc></desc>
<name>nm n'sissa</name>
<sym>Flag, Blue</sym>
</wpt>

<wpt lat='32.61308' lon='-2.29591'>
<ele></ele>
<time>2007-07-17 19:18:00</time>
<desc></desc>
<name>nm n'sissa</name>
<sym>Flag, Blue</sym>
</wpt>

<wpt lat='32.61308' lon='-2.29591'>
<ele></ele>
<time>2007-07-17 19:18:00</time>
<desc></desc>
<name>nm n'sissa</name>
<sym>Flag, Blue</sym>
</wpt>

<wpt lat='32.61308' lon='-2.29591'>
<ele></ele>
<time>2007-07-17 19:18:00</time>
<desc></desc>
<name>nm n'sissa</name>
<sym>Flag, Blue</sym>
</wpt>

<wpt lat='32.26857' lon='-2.51628'>
<ele></ele>
<time>2008-08-05 19:05:00</time>
<desc></desc>
<name>kehf chabatlakhira</name>
<sym>Flag, Blue</sym>
</wpt>

<wpt lat='32.26857' lon='-2.51628'>
<ele></ele>
<time>2008-08-05 19:05:00</time>
<desc></desc>
<name>kehf chabatlakhira</name>
<sym>Flag, Blue</sym>
</wpt>

<wpt lat='32.26857' lon='-2.51628'>
<ele></ele>
<time>2008-08-05 19:05:00</time>
<desc></desc>
<name>kehf chabatlakhira</name>
<sym>Flag, Blue</sym>
</wpt>

<wpt lat='32.26857' lon='-2.51628'>
<ele></ele>
<time>2008-08-05 19:05:00</time>
<desc></desc>
<name>kehf chabatlakhira</name>
<sym>Flag, Blue</sym>
</wpt>

<wpt lat='32.26857' lon='-2.51628'>
<ele></ele>
<time>2008-08-05 19:05:00</time>
<desc></desc>
<name>kehf chabatlakhira</name>
<sym>Flag, Blue</sym>
</wpt>

<wpt lat='32.26857' lon='-2.51628'>
<ele></ele>
<time>2008-08-05 19:05:00</time>
<desc></desc>
<name>kehf chabatlakhira</name>
<sym>Flag, Blue</sym>
</wpt>

<wpt lat='32.26857' lon='-2.51628'>
<ele></ele>
<time>2008-08-05 19:05:00</time>
<desc></desc>
<name>kehf chabatlakhira</name>
<sym>Flag, Blue</sym>
</wpt>

<wpt lat='32.26857' lon='-2.51628'>
<ele></ele>
<time>2008-08-05 19:05:00</time>
<desc></desc>
<name>kehf chabatlakhira</name>
<sym>Flag, Blue</sym>
</wpt>

<wpt lat='33.56908' lon='-3.77369'>
<ele></ele>
<time>2009-06-27 00:00:00</time>
<desc></desc>
<name>Nm tachourouint</name>
<sym>Flag, Blue</sym>
</wpt>

<wpt lat='32.34180' lon='-3.09919'>
<ele></ele>
<time>2009-08-11 19:00:00</time>
<desc></desc>
<name>oued moguir</name>
<sym>Flag, Blue</sym>
</wpt>

<wpt lat='32.34180' lon='-3.09919'>
<ele></ele>
<time>2009-08-11 19:00:00</time>
<desc></desc>
<name>oued moguir</name>
<sym>Flag, Blue</sym>
</wpt>

<wpt lat='32.70075' lon='-3.79857'>
<ele></ele>
<time>2009-08-15 20:00:00</time>
<desc></desc>
<name>nm taoura</name>
<sym>Flag, Blue</sym>
</wpt>

<wpt lat='32.70075' lon='-3.79857'>
<ele></ele>
<time>2009-08-15 20:00:00</time>
<desc></desc>
<name>nm taoura</name>
<sym>Flag, Blue</sym>
</wpt>

<wpt lat='32.70075' lon='-3.79857'>
<ele></ele>
<time>2009-08-15 20:00:00</time>
<desc></desc>
<name>nm taoura</name>
<sym>Flag, Blue</sym>
</wpt>

<wpt lat='32.70075' lon='-3.79857'>
<ele></ele>
<time>2009-08-15 20:00:00</time>
<desc></desc>
<name>nm taoura</name>
<sym>Flag, Blue</sym>
</wpt>

<wpt lat='32.70075' lon='-3.79857'>
<ele></ele>
<time>2009-08-15 20:00:00</time>
<desc></desc>
<name>nm taoura</name>
<sym>Flag, Blue</sym>
</wpt>

<wpt lat='32.70075' lon='-3.79857'>
<ele></ele>
<time>2009-08-15 20:00:00</time>
<desc></desc>
<name>nm taoura</name>
<sym>Flag, Blue</sym>
</wpt>

<wpt lat='32.70075' lon='-3.79857'>
<ele></ele>
<time>2009-08-15 20:00:00</time>
<desc></desc>
<name>nm taoura</name>
<sym>Flag, Blue</sym>
</wpt>

<wpt lat='32.70075' lon='-3.79857'>
<ele></ele>
<time>2009-08-15 20:00:00</time>
<desc></desc>
<name>nm taoura</name>
<sym>Flag, Blue</sym>
</wpt>

<wpt lat='32.70075' lon='-3.79857'>
<ele></ele>
<time>2009-08-15 20:00:00</time>
<desc></desc>
<name>nm taoura</name>
<sym>Flag, Blue</sym>
</wpt>

<wpt lat='32.70075' lon='-3.79857'>
<ele></ele>
<time>2009-08-15 20:00:00</time>
<desc></desc>
<name>nm taoura</name>
<sym>Flag, Blue</sym>
</wpt>

<wpt lat='32.70075' lon='-3.79857'>
<ele></ele>
<time>2009-08-15 20:00:00</time>
<desc></desc>
<name>nm taoura</name>
<sym>Flag, Blue</sym>
</wpt>

<wpt lat='32.70075' lon='-3.79857'>
<ele></ele>
<time>2009-08-15 20:00:00</time>
<desc></desc>
<name>nm taoura</name>
<sym>Flag, Blue</sym>
</wpt>

<wpt lat='32.70075' lon='-3.79857'>
<ele></ele>
<time>2009-08-15 20:00:00</time>
<desc></desc>
<name>nm taoura</name>
<sym>Flag, Blue</sym>
</wpt>

<wpt lat='32.56750' lon='-1.95303'>
<ele></ele>
<time>2007-09-17 18:11:00</time>
<desc></desc>
<name>mine bouarfa</name>
<sym>Flag, Blue</sym>
</wpt>

<wpt lat='32.56750' lon='-1.95303'>
<ele></ele>
<time>2007-09-17 18:11:00</time>
<desc></desc>
<name>mine bouarfa</name>
<sym>Flag, Blue</sym>
</wpt>

<wpt lat='32.56750' lon='-1.95303'>
<ele></ele>
<time>2007-09-17 18:11:00</time>
<desc></desc>
<name>mine bouarfa</name>
<sym>Flag, Blue</sym>
</wpt>

<wpt lat='32.56750' lon='-1.95303'>
<ele></ele>
<time>2007-09-17 18:11:00</time>
<desc></desc>
<name>mine bouarfa</name>
<sym>Flag, Blue</sym>
</wpt>

<wpt lat='32.56750' lon='-1.95303'>
<ele></ele>
<time>2007-09-17 18:11:00</time>
<desc></desc>
<name>mine bouarfa</name>
<sym>Flag, Blue</sym>
</wpt>

<wpt lat='32.56750' lon='-1.95303'>
<ele></ele>
<time>2007-09-17 18:11:00</time>
<desc></desc>
<name>mine bouarfa</name>
<sym>Flag, Blue</sym>
</wpt>

<wpt lat='33.05185' lon='-4.08478'>
<ele></ele>
<time>2008-07-09 00:00:00</time>
<desc></desc>
<name>oued chouf cherg aval</name>
<sym>Flag, Blue</sym>
</wpt>

<wpt lat='32.40889' lon='-2.79580'>
<ele></ele>
<time>2008-06-11 19:17:00</time>
<desc></desc>
<name>kehf baaj</name>
<sym>Flag, Blue</sym>
</wpt>

<wpt lat='32.40889' lon='-2.79580'>
<ele></ele>
<time>2008-06-11 19:17:00</time>
<desc></desc>
<name>kehf baaj</name>
<sym>Flag, Blue</sym>
</wpt>

<wpt lat='32.40889' lon='-2.79580'>
<ele></ele>
<time>2008-06-11 19:17:00</time>
<desc></desc>
<name>kehf baaj</name>
<sym>Flag, Blue</sym>
</wpt>

<wpt lat='32.40889' lon='-2.79580'>
<ele></ele>
<time>2008-06-11 19:17:00</time>
<desc></desc>
<name>kehf baaj</name>
<sym>Flag, Blue</sym>
</wpt>

<wpt lat='32.40889' lon='-2.79580'>
<ele></ele>
<time>2008-06-11 19:17:00</time>
<desc></desc>
<name>kehf baaj</name>
<sym>Flag, Blue</sym>
</wpt>

<wpt lat='32.40889' lon='-2.79580'>
<ele></ele>
<time>2008-06-11 19:17:00</time>
<desc></desc>
<name>kehf baaj</name>
<sym>Flag, Blue</sym>
</wpt>

<wpt lat='32.40889' lon='-2.79580'>
<ele></ele>
<time>2008-06-11 19:17:00</time>
<desc></desc>
<name>kehf baaj</name>
<sym>Flag, Blue</sym>
</wpt>

<wpt lat='32.40889' lon='-2.79580'>
<ele></ele>
<time>2008-06-11 19:17:00</time>
<desc></desc>
<name>kehf baaj</name>
<sym>Flag, Blue</sym>
</wpt>

<wpt lat='32.40889' lon='-2.79580'>
<ele></ele>
<time>2008-06-11 19:17:00</time>
<desc></desc>
<name>kehf baaj</name>
<sym>Flag, Blue</sym>
</wpt>

<wpt lat='32.40889' lon='-2.79580'>
<ele></ele>
<time>2008-06-11 19:17:00</time>
<desc></desc>
<name>kehf baaj</name>
<sym>Flag, Blue</sym>
</wpt>

<wpt lat='32.40889' lon='-2.79580'>
<ele></ele>
<time>2008-06-11 19:17:00</time>
<desc></desc>
<name>kehf baaj</name>
<sym>Flag, Blue</sym>
</wpt>

<wpt lat='32.40889' lon='-2.79580'>
<ele></ele>
<time>2008-06-11 19:17:00</time>
<desc></desc>
<name>kehf baaj</name>
<sym>Flag, Blue</sym>
</wpt>

<wpt lat='32.40889' lon='-2.79580'>
<ele></ele>
<time>2008-06-11 19:17:00</time>
<desc></desc>
<name>kehf baaj</name>
<sym>Flag, Blue</sym>
</wpt>

<wpt lat='32.39199' lon='-2.46646'>
<ele></ele>
<time>2007-06-30 19:22:00</time>
<desc></desc>
<name>kehf hazma</name>
<sym>Flag, Blue</sym>
</wpt>

<wpt lat='32.39199' lon='-2.46646'>
<ele></ele>
<time>2007-06-30 19:22:00</time>
<desc></desc>
<name>kehf hazma</name>
<sym>Flag, Blue</sym>
</wpt>

<wpt lat='32.39199' lon='-2.46646'>
<ele></ele>
<time>2007-06-30 19:22:00</time>
<desc></desc>
<name>kehf hazma</name>
<sym>Flag, Blue</sym>
</wpt>

<wpt lat='32.39199' lon='-2.46646'>
<ele></ele>
<time>2007-06-30 19:22:00</time>
<desc></desc>
<name>kehf hazma</name>
<sym>Flag, Blue</sym>
</wpt>

<wpt lat='32.36284' lon='-2.49076'>
<ele></ele>
<time>2007-07-02 19:22:00</time>
<desc></desc>
<name>kehf mhessar</name>
<sym>Flag, Blue</sym>
</wpt>

<wpt lat='32.36284' lon='-2.49076'>
<ele></ele>
<time>2007-07-02 19:22:00</time>
<desc></desc>
<name>kehf mhessar</name>
<sym>Flag, Blue</sym>
</wpt>

<wpt lat='33.39997' lon='-3.47342'>
<ele></ele>
<time>2008-06-19 19:20:00</time>
<desc></desc>
<name>kehf osatlbir</name>
<sym>Flag, Blue</sym>
</wpt>

<wpt lat='32.32772' lon='-2.80664'>
<ele></ele>
<time>2007-07-04 19:22:00</time>
<desc></desc>
<name>nm jbel qob</name>
<sym>Flag, Blue</sym>
</wpt>

<wpt lat='32.32772' lon='-2.80664'>
<ele></ele>
<time>2007-07-04 19:22:00</time>
<desc></desc>
<name>nm jbel qob</name>
<sym>Flag, Blue</sym>
</wpt>

<wpt lat='32.32772' lon='-2.80664'>
<ele></ele>
<time>2007-07-04 19:22:00</time>
<desc></desc>
<name>nm jbel qob</name>
<sym>Flag, Blue</sym>
</wpt>

<wpt lat='32.32772' lon='-2.80664'>
<ele></ele>
<time>2007-07-04 19:22:00</time>
<desc></desc>
<name>nm jbel qob</name>
<sym>Flag, Blue</sym>
</wpt>

<wpt lat='32.32772' lon='-2.80664'>
<ele></ele>
<time>2007-07-04 19:22:00</time>
<desc></desc>
<name>nm jbel qob</name>
<sym>Flag, Blue</sym>
</wpt>

<wpt lat='32.32772' lon='-2.80664'>
<ele></ele>
<time>2007-07-04 19:22:00</time>
<desc></desc>
<name>nm jbel qob</name>
<sym>Flag, Blue</sym>
</wpt>

<wpt lat='32.32772' lon='-2.80664'>
<ele></ele>
<time>2007-07-04 19:22:00</time>
<desc></desc>
<name>nm jbel qob</name>
<sym>Flag, Blue</sym>
</wpt>

<wpt lat='32.37791' lon='-3.14635'>
<ele></ele>
<time>2007-07-24 00:00:00</time>
<desc></desc>
<name>nm tlamt</name>
<sym>Flag, Blue</sym>
</wpt>

<wpt lat='32.99694' lon='-4.04605'>
<ele></ele>
<time>2008-08-21 18:48:00</time>
<desc></desc>
<name>None</name>
<sym>Flag, Blue</sym>
</wpt>

<wpt lat='32.99694' lon='-4.04605'>
<ele></ele>
<time>2008-08-21 18:48:00</time>
<desc></desc>
<name>None</name>
<sym>Flag, Blue</sym>
</wpt>

<wpt lat='32.13579' lon='-3.04252'>
<ele></ele>
<time>2008-08-26 18:42:00</time>
<desc></desc>
<name>kehf hmam</name>
<sym>Flag, Blue</sym>
</wpt>

<wpt lat='32.13579' lon='-3.04252'>
<ele></ele>
<time>2008-08-26 18:42:00</time>
<desc></desc>
<name>kehf hmam</name>
<sym>Flag, Blue</sym>
</wpt>

<wpt lat='32.13579' lon='-3.04252'>
<ele></ele>
<time>2008-08-26 18:42:00</time>
<desc></desc>
<name>kehf hmam</name>
<sym>Flag, Blue</sym>
</wpt>

<wpt lat='32.13579' lon='-3.04252'>
<ele></ele>
<time>2008-08-26 18:42:00</time>
<desc></desc>
<name>kehf hmam</name>
<sym>Flag, Blue</sym>
</wpt>

<wpt lat='32.13579' lon='-3.04252'>
<ele></ele>
<time>2008-08-26 18:42:00</time>
<desc></desc>
<name>kehf hmam</name>
<sym>Flag, Blue</sym>
</wpt>

<wpt lat='32.13579' lon='-3.04252'>
<ele></ele>
<time>2008-08-26 18:42:00</time>
<desc></desc>
<name>kehf hmam</name>
<sym>Flag, Blue</sym>
</wpt>

<wpt lat='32.13579' lon='-3.04252'>
<ele></ele>
<time>2008-08-26 18:42:00</time>
<desc></desc>
<name>kehf hmam</name>
<sym>Flag, Blue</sym>
</wpt>

<wpt lat='32.13579' lon='-3.04252'>
<ele></ele>
<time>2008-08-26 18:42:00</time>
<desc></desc>
<name>kehf hmam</name>
<sym>Flag, Blue</sym>
</wpt>

<wpt lat='32.13579' lon='-3.04252'>
<ele></ele>
<time>2008-08-26 18:42:00</time>
<desc></desc>
<name>kehf hmam</name>
<sym>Flag, Blue</sym>
</wpt>

<wpt lat='32.13579' lon='-3.04252'>
<ele></ele>
<time>2008-08-26 18:42:00</time>
<desc></desc>
<name>kehf hmam</name>
<sym>Flag, Blue</sym>
</wpt>

<wpt lat='32.13579' lon='-3.04252'>
<ele></ele>
<time>2008-08-26 18:42:00</time>
<desc></desc>
<name>kehf hmam</name>
<sym>Flag, Blue</sym>
</wpt>

<wpt lat='32.13579' lon='-3.04252'>
<ele></ele>
<time>2008-08-26 18:42:00</time>
<desc></desc>
<name>kehf hmam</name>
<sym>Flag, Blue</sym>
</wpt>

<wpt lat='32.13579' lon='-3.04252'>
<ele></ele>
<time>2008-08-26 18:42:00</time>
<desc></desc>
<name>kehf hmam</name>
<sym>Flag, Blue</sym>
</wpt>

<wpt lat='32.13579' lon='-3.04252'>
<ele></ele>
<time>2008-08-26 18:42:00</time>
<desc></desc>
<name>kehf hmam</name>
<sym>Flag, Blue</sym>
</wpt>

<wpt lat='32.13579' lon='-3.04252'>
<ele></ele>
<time>2008-08-26 18:42:00</time>
<desc></desc>
<name>kehf hmam</name>
<sym>Flag, Blue</sym>
</wpt>

<wpt lat='32.13579' lon='-3.04252'>
<ele></ele>
<time>2008-08-26 18:42:00</time>
<desc></desc>
<name>kehf hmam</name>
<sym>Flag, Blue</sym>
</wpt>

<wpt lat='32.13579' lon='-3.04252'>
<ele></ele>
<time>2008-08-26 18:42:00</time>
<desc></desc>
<name>kehf hmam</name>
<sym>Flag, Blue</sym>
</wpt>

<wpt lat='32.56750' lon='-1.95303'>
<ele></ele>
<time>2007-07-01 19:22:00</time>
<desc></desc>
<name>mine bouarfa</name>
<sym>Flag, Blue</sym>
</wpt>

<wpt lat='32.56750' lon='-1.95303'>
<ele></ele>
<time>2007-07-01 19:22:00</time>
<desc></desc>
<name>mine bouarfa</name>
<sym>Flag, Blue</sym>
</wpt>

<wpt lat='32.56750' lon='-1.95303'>
<ele></ele>
<time>2007-07-01 19:22:00</time>
<desc></desc>
<name>mine bouarfa</name>
<sym>Flag, Blue</sym>
</wpt>

<wpt lat='32.56750' lon='-1.95303'>
<ele></ele>
<time>2007-07-01 19:22:00</time>
<desc></desc>
<name>mine bouarfa</name>
<sym>Flag, Blue</sym>
</wpt>

<wpt lat='32.56750' lon='-1.95303'>
<ele></ele>
<time>2007-07-01 19:22:00</time>
<desc></desc>
<name>mine bouarfa</name>
<sym>Flag, Blue</sym>
</wpt>

<wpt lat='32.56750' lon='-1.95303'>
<ele></ele>
<time>2007-07-01 19:22:00</time>
<desc></desc>
<name>mine bouarfa</name>
<sym>Flag, Blue</sym>
</wpt>

<wpt lat='32.56750' lon='-1.95303'>
<ele></ele>
<time>2007-07-01 19:22:00</time>
<desc></desc>
<name>mine bouarfa</name>
<sym>Flag, Blue</sym>
</wpt>

<wpt lat='32.56750' lon='-1.95303'>
<ele></ele>
<time>2007-07-01 19:22:00</time>
<desc></desc>
<name>mine bouarfa</name>
<sym>Flag, Blue</sym>
</wpt>

<wpt lat='32.56750' lon='-1.95303'>
<ele></ele>
<time>2007-07-01 19:22:00</time>
<desc></desc>
<name>mine bouarfa</name>
<sym>Flag, Blue</sym>
</wpt>

<wpt lat='32.34790' lon='-2.85266'>
<ele></ele>
<time>2007-07-16 19:19:00</time>
<desc></desc>
<name>nm karima</name>
<sym>Flag, Blue</sym>
</wpt>

<wpt lat='32.34790' lon='-2.85266'>
<ele></ele>
<time>2007-07-16 19:19:00</time>
<desc></desc>
<name>nm karima</name>
<sym>Flag, Blue</sym>
</wpt>

<wpt lat='32.34790' lon='-2.85266'>
<ele></ele>
<time>2007-07-16 19:19:00</time>
<desc></desc>
<name>nm karima</name>
<sym>Flag, Blue</sym>
</wpt>

<wpt lat='32.34790' lon='-2.85266'>
<ele></ele>
<time>2007-07-16 19:19:00</time>
<desc></desc>
<name>nm karima</name>
<sym>Flag, Blue</sym>
</wpt>

<wpt lat='32.34790' lon='-2.85266'>
<ele></ele>
<time>2007-07-16 19:19:00</time>
<desc></desc>
<name>nm karima</name>
<sym>Flag, Blue</sym>
</wpt>

<wpt lat='32.34790' lon='-2.85266'>
<ele></ele>
<time>2007-07-16 19:19:00</time>
<desc></desc>
<name>nm karima</name>
<sym>Flag, Blue</sym>
</wpt>

<wpt lat='32.34790' lon='-2.85266'>
<ele></ele>
<time>2007-07-16 19:19:00</time>
<desc></desc>
<name>nm karima</name>
<sym>Flag, Blue</sym>
</wpt>

<wpt lat='32.34790' lon='-2.85266'>
<ele></ele>
<time>2007-07-16 19:19:00</time>
<desc></desc>
<name>nm karima</name>
<sym>Flag, Blue</sym>
</wpt>

<wpt lat='32.34790' lon='-2.85266'>
<ele></ele>
<time>2007-07-17 00:00:00</time>
<desc></desc>
<name>nm karima</name>
<sym>Flag, Blue</sym>
</wpt>

<wpt lat='32.34790' lon='-2.85266'>
<ele></ele>
<time>2007-07-17 00:00:00</time>
<desc></desc>
<name>nm karima</name>
<sym>Flag, Blue</sym>
</wpt>

<wpt lat='32.34790' lon='-2.85266'>
<ele></ele>
<time>2007-07-17 00:00:00</time>
<desc></desc>
<name>nm karima</name>
<sym>Flag, Blue</sym>
</wpt>

<wpt lat='32.34790' lon='-2.85266'>
<ele></ele>
<time>2007-07-17 00:00:00</time>
<desc></desc>
<name>nm karima</name>
<sym>Flag, Blue</sym>
</wpt>

<wpt lat='32.34790' lon='-2.85266'>
<ele></ele>
<time>2007-07-17 00:00:00</time>
<desc></desc>
<name>nm karima</name>
<sym>Flag, Blue</sym>
</wpt>

<wpt lat='32.34790' lon='-2.85266'>
<ele></ele>
<time>2007-07-17 00:00:00</time>
<desc></desc>
<name>nm karima</name>
<sym>Flag, Blue</sym>
</wpt>

<wpt lat='32.34790' lon='-2.85266'>
<ele></ele>
<time>2007-07-17 00:00:00</time>
<desc></desc>
<name>nm karima</name>
<sym>Flag, Blue</sym>
</wpt>

<wpt lat='32.34790' lon='-2.85266'>
<ele></ele>
<time>2007-07-17 00:00:00</time>
<desc></desc>
<name>nm karima</name>
<sym>Flag, Blue</sym>
</wpt>

<wpt lat='32.34790' lon='-2.85266'>
<ele></ele>
<time>2007-07-17 00:00:00</time>
<desc></desc>
<name>nm karima</name>
<sym>Flag, Blue</sym>
</wpt>

<wpt lat='32.34790' lon='-2.85266'>
<ele></ele>
<time>2007-07-17 00:00:00</time>
<desc></desc>
<name>nm karima</name>
<sym>Flag, Blue</sym>
</wpt>

<wpt lat='32.34790' lon='-2.85266'>
<ele></ele>
<time>2007-07-17 00:00:00</time>
<desc></desc>
<name>nm karima</name>
<sym>Flag, Blue</sym>
</wpt>

<wpt lat='32.34790' lon='-2.85266'>
<ele></ele>
<time>2007-07-17 00:00:00</time>
<desc></desc>
<name>nm karima</name>
<sym>Flag, Blue</sym>
</wpt>

<wpt lat='32.34790' lon='-2.85266'>
<ele></ele>
<time>2007-07-17 00:00:00</time>
<desc></desc>
<name>nm karima</name>
<sym>Flag, Blue</sym>
</wpt>

<wpt lat='32.34790' lon='-2.85266'>
<ele></ele>
<time>2007-07-17 00:00:00</time>
<desc></desc>
<name>nm karima</name>
<sym>Flag, Blue</sym>
</wpt>

<wpt lat='32.34790' lon='-2.85266'>
<ele></ele>
<time>2007-07-17 00:00:00</time>
<desc></desc>
<name>nm karima</name>
<sym>Flag, Blue</sym>
</wpt>

<wpt lat='32.34556' lon='-1.97653'>
<ele></ele>
<time>2008-07-09 19:21:00</time>
<desc></desc>
<name>mine ghels</name>
<sym>Flag, Blue</sym>
</wpt>

<wpt lat='32.66505' lon='-3.16124'>
<ele></ele>
<time>2008-07-08 19:21:00</time>
<desc></desc>
<name>nm anoual1</name>
<sym>Flag, Blue</sym>
</wpt>

<wpt lat='32.66505' lon='-3.16124'>
<ele></ele>
<time>2008-07-08 19:21:00</time>
<desc></desc>
<name>nm anoual1</name>
<sym>Flag, Blue</sym>
</wpt>

<wpt lat='32.66505' lon='-3.16124'>
<ele></ele>
<time>2008-07-08 19:21:00</time>
<desc></desc>
<name>nm anoual1</name>
<sym>Flag, Blue</sym>
</wpt>

<wpt lat='32.66505' lon='-3.16124'>
<ele></ele>
<time>2008-07-08 19:21:00</time>
<desc></desc>
<name>nm anoual1</name>
<sym>Flag, Blue</sym>
</wpt>

<wpt lat='32.66505' lon='-3.16124'>
<ele></ele>
<time>2008-07-08 19:21:00</time>
<desc></desc>
<name>nm anoual1</name>
<sym>Flag, Blue</sym>
</wpt>

<wpt lat='32.66505' lon='-3.16124'>
<ele></ele>
<time>2008-07-08 19:21:00</time>
<desc></desc>
<name>nm anoual1</name>
<sym>Flag, Blue</sym>
</wpt>

<wpt lat='32.66505' lon='-3.16124'>
<ele></ele>
<time>2008-07-08 19:21:00</time>
<desc></desc>
<name>nm anoual1</name>
<sym>Flag, Blue</sym>
</wpt>

<wpt lat='32.66505' lon='-3.16124'>
<ele></ele>
<time>2008-07-08 19:21:00</time>
<desc></desc>
<name>nm anoual1</name>
<sym>Flag, Blue</sym>
</wpt>

<wpt lat='32.66505' lon='-3.16124'>
<ele></ele>
<time>2008-07-09 00:00:00</time>
<desc></desc>
<name>nm anoual1</name>
<sym>Flag, Blue</sym>
</wpt>

<wpt lat='32.66505' lon='-3.16124'>
<ele></ele>
<time>2008-07-09 00:00:00</time>
<desc></desc>
<name>nm anoual1</name>
<sym>Flag, Blue</sym>
</wpt>

<wpt lat='32.66505' lon='-3.16124'>
<ele></ele>
<time>2008-07-09 00:00:00</time>
<desc></desc>
<name>nm anoual1</name>
<sym>Flag, Blue</sym>
</wpt>

<wpt lat='32.66505' lon='-3.16124'>
<ele></ele>
<time>2008-07-09 00:00:00</time>
<desc></desc>
<name>nm anoual1</name>
<sym>Flag, Blue</sym>
</wpt>

<wpt lat='32.67289' lon='-4.03364'>
<ele></ele>
<time>2008-07-01 19:22:00</time>
<desc></desc>
<name>kehf tagourast</name>
<sym>Flag, Blue</sym>
</wpt>

<wpt lat='32.71686' lon='-3.61896'>
<ele></ele>
<time>2008-06-17 19:20:00</time>
<desc></desc>
<name>mine ouled tayr2</name>
<sym>Flag, Blue</sym>
</wpt>

<wpt lat='32.71686' lon='-3.61896'>
<ele></ele>
<time>2008-06-17 19:20:00</time>
<desc></desc>
<name>mine ouled tayr2</name>
<sym>Flag, Blue</sym>
</wpt>

<wpt lat='32.71686' lon='-3.61896'>
<ele></ele>
<time>2008-06-17 19:20:00</time>
<desc></desc>
<name>mine ouled tayr2</name>
<sym>Flag, Blue</sym>
</wpt>

<wpt lat='32.71686' lon='-3.61896'>
<ele></ele>
<time>2008-06-17 19:20:00</time>
<desc></desc>
<name>mine ouled tayr2</name>
<sym>Flag, Blue</sym>
</wpt>

<wpt lat='32.71686' lon='-3.61896'>
<ele></ele>
<time>2008-06-17 19:20:00</time>
<desc></desc>
<name>mine ouled tayr2</name>
<sym>Flag, Blue</sym>
</wpt>

<wpt lat='32.71686' lon='-3.61896'>
<ele></ele>
<time>2008-06-17 19:20:00</time>
<desc></desc>
<name>mine ouled tayr2</name>
<sym>Flag, Blue</sym>
</wpt>

<wpt lat='32.65150' lon='-4.12969'>
<ele></ele>
<time>2009-07-10 20:00:00</time>
<desc></desc>
<name>oued bousselam</name>
<sym>Flag, Blue</sym>
</wpt>

<wpt lat='33.96965' lon='-3.03957'>
<ele></ele>
<time>2009-07-30 19:25:00</time>
<desc></desc>
<name>kehf sbaa</name>
<sym>Flag, Blue</sym>
</wpt>

<wpt lat='33.96965' lon='-3.03957'>
<ele></ele>
<time>2009-07-30 19:25:00</time>
<desc></desc>
<name>kehf sbaa</name>
<sym>Flag, Blue</sym>
</wpt>

<wpt lat='33.37690' lon='-4.20313'>
<ele></ele>
<time>2009-08-17 19:00:00</time>
<desc></desc>
<name>oued almis</name>
<sym>Flag, Blue</sym>
</wpt>

<wpt lat='33.37690' lon='-4.20313'>
<ele></ele>
<time>2009-08-17 19:00:00</time>
<desc></desc>
<name>oued almis</name>
<sym>Flag, Blue</sym>
</wpt>

<wpt lat='33.37690' lon='-4.20313'>
<ele></ele>
<time>2009-08-18 00:00:00</time>
<desc></desc>
<name>oued almis</name>
<sym>Flag, Blue</sym>
</wpt>

<wpt lat='33.37690' lon='-4.20313'>
<ele></ele>
<time>2009-08-18 00:00:00</time>
<desc></desc>
<name>oued almis</name>
<sym>Flag, Blue</sym>
</wpt>

<wpt lat='33.37690' lon='-4.20313'>
<ele></ele>
<time>2009-08-18 00:00:00</time>
<desc></desc>
<name>oued almis</name>
<sym>Flag, Blue</sym>
</wpt>

<wpt lat='32.51506' lon='-1.00983'>
<ele></ele>
<time>2009-08-04 00:00:00</time>
<desc></desc>
<name>nm ich</name>
<sym>Flag, Blue</sym>
</wpt>

<wpt lat='32.51506' lon='-1.00983'>
<ele></ele>
<time>2009-08-04 00:00:00</time>
<desc></desc>
<name>nm ich</name>
<sym>Flag, Blue</sym>
</wpt>

<wpt lat='33.23745' lon='-4.65040'>
<ele></ele>
<time>2009-06-06 19:50:00</time>
<desc></desc>
<name>artif barrage enjil</name>
<sym>Flag, Blue</sym>
</wpt>

<wpt lat='33.35756' lon='-3.85763'>
<ele></ele>
<time>2009-06-03 19:30:00</time>
<desc></desc>
<name>mine shegg l'ard</name>
<sym>Flag, Blue</sym>
</wpt>

<wpt lat='33.35756' lon='-3.85763'>
<ele></ele>
<time>2009-06-04 00:00:00</time>
<desc></desc>
<name>mine shegg l'ard</name>
<sym>Flag, Blue</sym>
</wpt>

<wpt lat='33.35756' lon='-3.85763'>
<ele></ele>
<time>2009-06-04 00:00:00</time>
<desc></desc>
<name>mine shegg l'ard</name>
<sym>Flag, Blue</sym>
</wpt>

<wpt lat='33.35756' lon='-3.85763'>
<ele></ele>
<time>2009-06-04 00:00:00</time>
<desc></desc>
<name>mine shegg l'ard</name>
<sym>Flag, Blue</sym>
</wpt>

<wpt lat='33.35756' lon='-3.85763'>
<ele></ele>
<time>2009-06-04 00:00:00</time>
<desc></desc>
<name>mine shegg l'ard</name>
<sym>Flag, Blue</sym>
</wpt>

<wpt lat='32.20189' lon='-2.48033'>
<ele></ele>
<time>2009-08-17 19:00:00</time>
<desc></desc>
<name>nm ain chair</name>
<sym>Flag, Blue</sym>
</wpt>

<wpt lat='32.61308' lon='-2.29591'>
<ele></ele>
<time>2007-07-18 00:00:00</time>
<desc></desc>
<name>None</name>
<sym>Flag, Blue</sym>
</wpt>

<wpt lat='32.61308' lon='-2.29591'>
<ele></ele>
<time>2007-07-18 00:00:00</time>
<desc></desc>
<name>None</name>
<sym>Flag, Blue</sym>
</wpt>

<wpt lat='32.70075' lon='-3.79857'>
<ele></ele>
<time>2009-08-15 20:00:00</time>
<desc></desc>
<name>nm taoura</name>
<sym>Flag, Blue</sym>
</wpt>

<wpt lat='32.70075' lon='-3.79857'>
<ele></ele>
<time>2009-08-15 20:00:00</time>
<desc></desc>
<name>nm taoura</name>
<sym>Flag, Blue</sym>
</wpt>

<wpt lat='32.70075' lon='-3.79857'>
<ele></ele>
<time>2009-08-15 20:00:00</time>
<desc></desc>
<name>nm taoura</name>
<sym>Flag, Blue</sym>
</wpt>

<wpt lat='32.70075' lon='-3.79857'>
<ele></ele>
<time>2009-08-15 20:00:00</time>
<desc></desc>
<name>nm taoura</name>
<sym>Flag, Blue</sym>
</wpt>

<wpt lat='32.70075' lon='-3.79857'>
<ele></ele>
<time>2009-08-15 20:00:00</time>
<desc></desc>
<name>nm taoura</name>
<sym>Flag, Blue</sym>
</wpt>

<wpt lat='32.70075' lon='-3.79857'>
<ele></ele>
<time>2009-08-15 20:00:00</time>
<desc></desc>
<name>nm taoura</name>
<sym>Flag, Blue</sym>
</wpt>

<wpt lat='32.70075' lon='-3.79857'>
<ele></ele>
<time>2009-08-15 20:00:00</time>
<desc></desc>
<name>nm taoura</name>
<sym>Flag, Blue</sym>
</wpt>

<wpt lat='32.70075' lon='-3.79857'>
<ele></ele>
<time>2009-08-15 20:00:00</time>
<desc></desc>
<name>nm taoura</name>
<sym>Flag, Blue</sym>
</wpt>

<wpt lat='32.70075' lon='-3.79857'>
<ele></ele>
<time>2009-08-15 20:00:00</time>
<desc></desc>
<name>nm taoura</name>
<sym>Flag, Blue</sym>
</wpt>

<wpt lat='32.70075' lon='-3.79857'>
<ele></ele>
<time>2009-08-15 20:00:00</time>
<desc></desc>
<name>nm taoura</name>
<sym>Flag, Blue</sym>
</wpt>

<wpt lat='32.70075' lon='-3.79857'>
<ele></ele>
<time>2009-08-15 20:00:00</time>
<desc></desc>
<name>nm taoura</name>
<sym>Flag, Blue</sym>
</wpt>

<wpt lat='32.70075' lon='-3.79857'>
<ele></ele>
<time>2009-08-15 20:00:00</time>
<desc></desc>
<name>nm taoura</name>
<sym>Flag, Blue</sym>
</wpt>

<wpt lat='32.70075' lon='-3.79857'>
<ele></ele>
<time>2009-08-15 20:00:00</time>
<desc></desc>
<name>nm taoura</name>
<sym>Flag, Blue</sym>
</wpt>

<wpt lat='32.70075' lon='-3.79857'>
<ele></ele>
<time>2009-08-15 20:00:00</time>
<desc></desc>
<name>nm taoura</name>
<sym>Flag, Blue</sym>
</wpt>

<wpt lat='32.70075' lon='-3.79857'>
<ele></ele>
<time>2009-08-15 20:00:00</time>
<desc></desc>
<name>nm taoura</name>
<sym>Flag, Blue</sym>
</wpt>

<wpt lat='32.70075' lon='-3.79857'>
<ele></ele>
<time>2009-08-15 20:00:00</time>
<desc></desc>
<name>nm taoura</name>
<sym>Flag, Blue</sym>
</wpt>

<wpt lat='32.13579' lon='-3.04252'>
<ele></ele>
<time>2009-08-10 19:00:00</time>
<desc></desc>
<name>oued hirch</name>
<sym>Flag, Blue</sym>
</wpt>

<wpt lat='32.56750' lon='-1.95302'>
<ele></ele>
<time>2009-08-04 19:00:00</time>
<desc></desc>
<name>mine bouarfa</name>
<sym>Flag, Blue</sym>
</wpt>

<wpt lat='32.56750' lon='-1.95302'>
<ele></ele>
<time>2009-08-04 19:00:00</time>
<desc></desc>
<name>mine bouarfa</name>
<sym>Flag, Blue</sym>
</wpt>

<wpt lat='32.56750' lon='-1.95302'>
<ele></ele>
<time>2009-08-04 19:00:00</time>
<desc></desc>
<name>mine bouarfa</name>
<sym>Flag, Blue</sym>
</wpt>

<wpt lat='32.56750' lon='-1.95302'>
<ele></ele>
<time>2009-08-04 19:00:00</time>
<desc></desc>
<name>mine bouarfa</name>
<sym>Flag, Blue</sym>
</wpt>

<wpt lat='32.56750' lon='-1.95302'>
<ele></ele>
<time>2009-08-04 19:00:00</time>
<desc></desc>
<name>mine bouarfa</name>
<sym>Flag, Blue</sym>
</wpt>

<wpt lat='32.56750' lon='-1.95302'>
<ele></ele>
<time>2009-08-04 19:00:00</time>
<desc></desc>
<name>mine bouarfa</name>
<sym>Flag, Blue</sym>
</wpt>

<wpt lat='32.56750' lon='-1.95302'>
<ele></ele>
<time>2009-08-04 19:00:00</time>
<desc></desc>
<name>mine bouarfa</name>
<sym>Flag, Blue</sym>
</wpt>

<wpt lat='32.56750' lon='-1.95302'>
<ele></ele>
<time>2009-08-04 19:00:00</time>
<desc></desc>
<name>mine bouarfa</name>
<sym>Flag, Blue</sym>
</wpt>

<wpt lat='32.56750' lon='-1.95302'>
<ele></ele>
<time>2009-08-04 19:00:00</time>
<desc></desc>
<name>mine bouarfa</name>
<sym>Flag, Blue</sym>
</wpt>

<wpt lat='32.98959' lon='-4.49833'>
<ele></ele>
<time>2009-08-07 00:00:00</time>
<desc></desc>
<name>jorf sud ouchilas</name>
<sym>Flag, Blue</sym>
</wpt>

<wpt lat='32.98959' lon='-4.49833'>
<ele></ele>
<time>2009-08-07 00:00:00</time>
<desc></desc>
<name>jorf sud ouchilas</name>
<sym>Flag, Blue</sym>
</wpt>

<wpt lat='32.20239' lon='-1.94436'>
<ele></ele>
<time>2009-08-18 19:00:00</time>
<desc></desc>
<name>nm tanazara</name>
<sym>Flag, Blue</sym>
</wpt>

<wpt lat='32.20239' lon='-1.94436'>
<ele></ele>
<time>2009-08-18 19:00:00</time>
<desc></desc>
<name>nm tanazara</name>
<sym>Flag, Blue</sym>
</wpt>

<wpt lat='32.20239' lon='-1.94436'>
<ele></ele>
<time>2009-08-18 19:00:00</time>
<desc></desc>
<name>nm tanazara</name>
<sym>Flag, Blue</sym>
</wpt>

<wpt lat='32.20239' lon='-1.94436'>
<ele></ele>
<time>2009-08-18 19:00:00</time>
<desc></desc>
<name>nm tanazara</name>
<sym>Flag, Blue</sym>
</wpt>

<wpt lat='32.20239' lon='-1.94436'>
<ele></ele>
<time>2009-08-18 19:00:00</time>
<desc></desc>
<name>nm tanazara</name>
<sym>Flag, Blue</sym>
</wpt>

<wpt lat='32.20239' lon='-1.94436'>
<ele></ele>
<time>2009-08-18 19:00:00</time>
<desc></desc>
<name>nm tanazara</name>
<sym>Flag, Blue</sym>
</wpt>

<wpt lat='32.20239' lon='-1.94436'>
<ele></ele>
<time>2009-08-18 19:00:00</time>
<desc></desc>
<name>nm tanazara</name>
<sym>Flag, Blue</sym>
</wpt>

<wpt lat='32.20239' lon='-1.94436'>
<ele></ele>
<time>2009-08-18 19:00:00</time>
<desc></desc>
<name>nm tanazara</name>
<sym>Flag, Blue</sym>
</wpt>

<wpt lat='32.20239' lon='-1.94436'>
<ele></ele>
<time>2009-08-18 19:00:00</time>
<desc></desc>
<name>nm tanazara</name>
<sym>Flag, Blue</sym>
</wpt>

<wpt lat='32.20239' lon='-1.94436'>
<ele></ele>
<time>2009-08-18 19:00:00</time>
<desc></desc>
<name>nm tanazara</name>
<sym>Flag, Blue</sym>
</wpt>

<wpt lat='32.20239' lon='-1.94436'>
<ele></ele>
<time>2009-08-18 19:00:00</time>
<desc></desc>
<name>nm tanazara</name>
<sym>Flag, Blue</sym>
</wpt>

<wpt lat='32.20239' lon='-1.94436'>
<ele></ele>
<time>2009-08-18 19:00:00</time>
<desc></desc>
<name>nm tanazara</name>
<sym>Flag, Blue</sym>
</wpt>

<wpt lat='32.20239' lon='-1.94436'>
<ele></ele>
<time>2009-08-18 19:00:00</time>
<desc></desc>
<name>nm tanazara</name>
<sym>Flag, Blue</sym>
</wpt>

<wpt lat='32.20239' lon='-1.94436'>
<ele></ele>
<time>2009-08-18 19:00:00</time>
<desc></desc>
<name>nm tanazara</name>
<sym>Flag, Blue</sym>
</wpt>

<wpt lat='32.20239' lon='-1.94436'>
<ele></ele>
<time>2009-08-18 19:00:00</time>
<desc></desc>
<name>nm tanazara</name>
<sym>Flag, Blue</sym>
</wpt>

<wpt lat='32.20239' lon='-1.94436'>
<ele></ele>
<time>2009-08-18 19:00:00</time>
<desc></desc>
<name>nm tanazara</name>
<sym>Flag, Blue</sym>
</wpt>

<wpt lat='32.20239' lon='-1.94436'>
<ele></ele>
<time>2009-08-18 19:00:00</time>
<desc></desc>
<name>nm tanazara</name>
<sym>Flag, Blue</sym>
</wpt>

<wpt lat='32.20239' lon='-1.94436'>
<ele></ele>
<time>2009-08-18 19:00:00</time>
<desc></desc>
<name>nm tanazara</name>
<sym>Flag, Blue</sym>
</wpt>

<wpt lat='32.20239' lon='-1.94436'>
<ele></ele>
<time>2009-08-18 19:00:00</time>
<desc></desc>
<name>nm tanazara</name>
<sym>Flag, Blue</sym>
</wpt>

<wpt lat='32.20239' lon='-1.94436'>
<ele></ele>
<time>2009-08-18 19:00:00</time>
<desc></desc>
<name>nm tanazara</name>
<sym>Flag, Blue</sym>
</wpt>

<wpt lat='32.20239' lon='-1.94436'>
<ele></ele>
<time>2009-08-18 19:00:00</time>
<desc></desc>
<name>nm tanazara</name>
<sym>Flag, Blue</sym>
</wpt>

<wpt lat='32.20239' lon='-1.94436'>
<ele></ele>
<time>2009-08-18 19:00:00</time>
<desc></desc>
<name>nm tanazara</name>
<sym>Flag, Blue</sym>
</wpt>

<wpt lat='32.20239' lon='-1.94436'>
<ele></ele>
<time>2009-08-18 19:00:00</time>
<desc></desc>
<name>nm tanazara</name>
<sym>Flag, Blue</sym>
</wpt>

<wpt lat='32.20239' lon='-1.94436'>
<ele></ele>
<time>2009-08-18 19:00:00</time>
<desc></desc>
<name>nm tanazara</name>
<sym>Flag, Blue</sym>
</wpt>

<wpt lat='32.20239' lon='-1.94436'>
<ele></ele>
<time>2009-08-18 19:00:00</time>
<desc></desc>
<name>nm tanazara</name>
<sym>Flag, Blue</sym>
</wpt>

<wpt lat='32.20239' lon='-1.94436'>
<ele></ele>
<time>2009-08-18 19:00:00</time>
<desc></desc>
<name>nm tanazara</name>
<sym>Flag, Blue</sym>
</wpt>

<wpt lat='32.20239' lon='-1.94436'>
<ele></ele>
<time>2009-08-18 19:00:00</time>
<desc></desc>
<name>nm tanazara</name>
<sym>Flag, Blue</sym>
</wpt>

<wpt lat='32.20239' lon='-1.94436'>
<ele></ele>
<time>2009-08-18 19:00:00</time>
<desc></desc>
<name>nm tanazara</name>
<sym>Flag, Blue</sym>
</wpt>

<wpt lat='32.20239' lon='-1.94436'>
<ele></ele>
<time>2009-08-18 19:00:00</time>
<desc></desc>
<name>nm tanazara</name>
<sym>Flag, Blue</sym>
</wpt>

<wpt lat='32.62223' lon='-1.68698'>
<ele></ele>
<time>2007-05-18 19:02:00</time>
<desc></desc>
<name>mine klah</name>
<sym>Flag, Blue</sym>
</wpt>

<wpt lat='32.62223' lon='-1.68698'>
<ele></ele>
<time>2007-05-18 19:02:00</time>
<desc></desc>
<name>mine klah</name>
<sym>Flag, Blue</sym>
</wpt>

<wpt lat='32.62223' lon='-1.68698'>
<ele></ele>
<time>2007-05-18 19:02:00</time>
<desc></desc>
<name>mine klah</name>
<sym>Flag, Blue</sym>
</wpt>

<wpt lat='32.62223' lon='-1.68698'>
<ele></ele>
<time>2007-05-18 19:02:00</time>
<desc></desc>
<name>mine klah</name>
<sym>Flag, Blue</sym>
</wpt>

<wpt lat='32.62223' lon='-1.68698'>
<ele></ele>
<time>2007-05-18 19:02:00</time>
<desc></desc>
<name>mine klah</name>
<sym>Flag, Blue</sym>
</wpt>

<wpt lat='32.62223' lon='-1.68698'>
<ele></ele>
<time>2007-05-18 19:02:00</time>
<desc></desc>
<name>mine klah</name>
<sym>Flag, Blue</sym>
</wpt>

<wpt lat='32.62223' lon='-1.68698'>
<ele></ele>
<time>2007-05-18 19:02:00</time>
<desc></desc>
<name>mine klah</name>
<sym>Flag, Blue</sym>
</wpt>

<wpt lat='32.62223' lon='-1.68698'>
<ele></ele>
<time>2007-05-18 19:02:00</time>
<desc></desc>
<name>mine klah</name>
<sym>Flag, Blue</sym>
</wpt>

<wpt lat='32.62223' lon='-1.68698'>
<ele></ele>
<time>2007-05-18 19:02:00</time>
<desc></desc>
<name>mine klah</name>
<sym>Flag, Blue</sym>
</wpt>

<wpt lat='32.62223' lon='-1.68698'>
<ele></ele>
<time>2007-05-18 19:02:00</time>
<desc></desc>
<name>mine klah</name>
<sym>Flag, Blue</sym>
</wpt>

<wpt lat='32.62223' lon='-1.68698'>
<ele></ele>
<time>2007-05-18 19:02:00</time>
<desc></desc>
<name>mine klah</name>
<sym>Flag, Blue</sym>
</wpt>

<wpt lat='32.62223' lon='-1.68698'>
<ele></ele>
<time>2007-05-18 19:02:00</time>
<desc></desc>
<name>mine klah</name>
<sym>Flag, Blue</sym>
</wpt>

<wpt lat='32.62223' lon='-1.68698'>
<ele></ele>
<time>2007-05-18 19:02:00</time>
<desc></desc>
<name>mine klah</name>
<sym>Flag, Blue</sym>
</wpt>

<wpt lat='32.62223' lon='-1.68698'>
<ele></ele>
<time>2007-05-18 19:02:00</time>
<desc></desc>
<name>mine klah</name>
<sym>Flag, Blue</sym>
</wpt>

<wpt lat='32.62223' lon='-1.68698'>
<ele></ele>
<time>2007-05-18 19:02:00</time>
<desc></desc>
<name>mine klah</name>
<sym>Flag, Blue</sym>
</wpt>

<wpt lat='32.62223' lon='-1.68698'>
<ele></ele>
<time>2007-05-18 19:02:00</time>
<desc></desc>
<name>mine klah</name>
<sym>Flag, Blue</sym>
</wpt>

<wpt lat='32.62223' lon='-1.68698'>
<ele></ele>
<time>2007-05-18 19:02:00</time>
<desc></desc>
<name>mine klah</name>
<sym>Flag, Blue</sym>
</wpt>

<wpt lat='32.62223' lon='-1.68698'>
<ele></ele>
<time>2007-05-18 19:02:00</time>
<desc></desc>
<name>mine klah</name>
<sym>Flag, Blue</sym>
</wpt>

<wpt lat='32.62223' lon='-1.68698'>
<ele></ele>
<time>2007-05-18 19:02:00</time>
<desc></desc>
<name>mine klah</name>
<sym>Flag, Blue</sym>
</wpt>

<wpt lat='32.62223' lon='-1.68698'>
<ele></ele>
<time>2007-05-18 19:02:00</time>
<desc></desc>
<name>mine klah</name>
<sym>Flag, Blue</sym>
</wpt>

<wpt lat='32.62223' lon='-1.68698'>
<ele></ele>
<time>2007-05-18 19:02:00</time>
<desc></desc>
<name>mine klah</name>
<sym>Flag, Blue</sym>
</wpt>

<wpt lat='32.62223' lon='-1.68698'>
<ele></ele>
<time>2007-05-18 19:02:00</time>
<desc></desc>
<name>mine klah</name>
<sym>Flag, Blue</sym>
</wpt>

<wpt lat='32.62223' lon='-1.68698'>
<ele></ele>
<time>2007-05-18 19:02:00</time>
<desc></desc>
<name>mine klah</name>
<sym>Flag, Blue</sym>
</wpt>

<wpt lat='32.62223' lon='-1.68698'>
<ele></ele>
<time>2007-05-18 19:02:00</time>
<desc></desc>
<name>mine klah</name>
<sym>Flag, Blue</sym>
</wpt>

<wpt lat='32.62223' lon='-1.68698'>
<ele></ele>
<time>2007-05-18 19:02:00</time>
<desc></desc>
<name>mine klah</name>
<sym>Flag, Blue</sym>
</wpt>

<wpt lat='32.62223' lon='-1.68698'>
<ele></ele>
<time>2007-05-18 19:02:00</time>
<desc></desc>
<name>mine klah</name>
<sym>Flag, Blue</sym>
</wpt>

<wpt lat='32.62223' lon='-1.68698'>
<ele></ele>
<time>2007-05-18 19:02:00</time>
<desc></desc>
<name>mine klah</name>
<sym>Flag, Blue</sym>
</wpt>

<wpt lat='32.62223' lon='-1.68698'>
<ele></ele>
<time>2007-05-18 19:02:00</time>
<desc></desc>
<name>mine klah</name>
<sym>Flag, Blue</sym>
</wpt>

<wpt lat='32.37791' lon='-3.14635'>
<ele></ele>
<time>2007-07-23 19:15:00</time>
<desc></desc>
<name>nm tlamt</name>
<sym>Flag, Blue</sym>
</wpt>

<wpt lat='33.56908' lon='-3.77369'>
<ele></ele>
<time>2009-06-26 19:30:00</time>
<desc></desc>
<name>Nm tachourouint</name>
<sym>Flag, Blue</sym>
</wpt>

<wpt lat='33.56908' lon='-3.77369'>
<ele></ele>
<time>2009-06-26 19:30:00</time>
<desc></desc>
<name>Nm tachourouint</name>
<sym>Flag, Blue</sym>
</wpt>

<wpt lat='32.79039' lon='-3.53284'>
<ele></ele>
<time>2009-07-07 20:15:00</time>
<desc></desc>
<name>nm leuh</name>
<sym>Flag, Blue</sym>
</wpt>

<wpt lat='32.79039' lon='-3.53284'>
<ele></ele>
<time>2009-07-07 20:15:00</time>
<desc></desc>
<name>nm leuh</name>
<sym>Flag, Blue</sym>
</wpt>

<wpt lat='32.79039' lon='-3.53284'>
<ele></ele>
<time>2009-07-07 20:15:00</time>
<desc></desc>
<name>nm leuh</name>
<sym>Flag, Blue</sym>
</wpt>

<wpt lat='32.79039' lon='-3.53284'>
<ele></ele>
<time>2009-07-07 20:15:00</time>
<desc></desc>
<name>nm leuh</name>
<sym>Flag, Blue</sym>
</wpt>

<wpt lat='32.79039' lon='-3.53284'>
<ele></ele>
<time>2009-07-07 20:15:00</time>
<desc></desc>
<name>nm leuh</name>
<sym>Flag, Blue</sym>
</wpt>

<wpt lat='32.79039' lon='-3.53284'>
<ele></ele>
<time>2009-07-07 20:15:00</time>
<desc></desc>
<name>nm leuh</name>
<sym>Flag, Blue</sym>
</wpt>

<wpt lat='32.79039' lon='-3.53284'>
<ele></ele>
<time>2009-07-07 20:15:00</time>
<desc></desc>
<name>nm leuh</name>
<sym>Flag, Blue</sym>
</wpt>

<wpt lat='32.79039' lon='-3.53284'>
<ele></ele>
<time>2009-07-07 20:15:00</time>
<desc></desc>
<name>nm leuh</name>
<sym>Flag, Blue</sym>
</wpt>

<wpt lat='32.79039' lon='-3.53284'>
<ele></ele>
<time>2009-07-07 20:15:00</time>
<desc></desc>
<name>nm leuh</name>
<sym>Flag, Blue</sym>
</wpt>

<wpt lat='32.79039' lon='-3.53284'>
<ele></ele>
<time>2009-07-07 20:15:00</time>
<desc></desc>
<name>nm leuh</name>
<sym>Flag, Blue</sym>
</wpt>

<wpt lat='32.79039' lon='-3.53284'>
<ele></ele>
<time>2009-07-07 20:15:00</time>
<desc></desc>
<name>nm leuh</name>
<sym>Flag, Blue</sym>
</wpt>

<wpt lat='32.79039' lon='-3.53284'>
<ele></ele>
<time>2009-07-07 20:15:00</time>
<desc></desc>
<name>nm leuh</name>
<sym>Flag, Blue</sym>
</wpt>

<wpt lat='32.86282' lon='-3.00345'>
<ele></ele>
<time>2009-07-13 21:00:00</time>
<desc></desc>
<name>nm leehmyda</name>
<sym>Flag, Blue</sym>
</wpt>

<wpt lat='32.86282' lon='-3.00345'>
<ele></ele>
<time>2009-07-13 21:00:00</time>
<desc></desc>
<name>nm leehmyda</name>
<sym>Flag, Blue</sym>
</wpt>

<wpt lat='32.86282' lon='-3.00345'>
<ele></ele>
<time>2009-07-13 21:00:00</time>
<desc></desc>
<name>nm leehmyda</name>
<sym>Flag, Blue</sym>
</wpt>

<wpt lat='32.86282' lon='-3.00345'>
<ele></ele>
<time>2009-07-13 21:00:00</time>
<desc></desc>
<name>nm leehmyda</name>
<sym>Flag, Blue</sym>
</wpt>

<wpt lat='32.86282' lon='-3.00345'>
<ele></ele>
<time>2009-07-13 21:00:00</time>
<desc></desc>
<name>nm leehmyda</name>
<sym>Flag, Blue</sym>
</wpt>

<wpt lat='32.86282' lon='-3.00345'>
<ele></ele>
<time>2009-07-13 21:00:00</time>
<desc></desc>
<name>nm leehmyda</name>
<sym>Flag, Blue</sym>
</wpt>

<wpt lat='32.86282' lon='-3.00345'>
<ele></ele>
<time>2009-07-13 21:00:00</time>
<desc></desc>
<name>nm leehmyda</name>
<sym>Flag, Blue</sym>
</wpt>

<wpt lat='32.86282' lon='-3.00345'>
<ele></ele>
<time>2009-07-13 21:00:00</time>
<desc></desc>
<name>nm leehmyda</name>
<sym>Flag, Blue</sym>
</wpt>

<wpt lat='32.86282' lon='-3.00345'>
<ele></ele>
<time>2009-07-13 21:00:00</time>
<desc></desc>
<name>nm leehmyda</name>
<sym>Flag, Blue</sym>
</wpt>

<wpt lat='32.86282' lon='-3.00345'>
<ele></ele>
<time>2009-07-13 21:00:00</time>
<desc></desc>
<name>nm leehmyda</name>
<sym>Flag, Blue</sym>
</wpt>

<wpt lat='32.86282' lon='-3.00345'>
<ele></ele>
<time>2009-07-13 21:00:00</time>
<desc></desc>
<name>nm leehmyda</name>
<sym>Flag, Blue</sym>
</wpt>

<wpt lat='32.86282' lon='-3.00345'>
<ele></ele>
<time>2009-07-13 21:00:00</time>
<desc></desc>
<name>nm leehmyda</name>
<sym>Flag, Blue</sym>
</wpt>

<wpt lat='32.86282' lon='-3.00345'>
<ele></ele>
<time>2009-07-13 21:00:00</time>
<desc></desc>
<name>nm leehmyda</name>
<sym>Flag, Blue</sym>
</wpt>

<wpt lat='32.86282' lon='-3.00345'>
<ele></ele>
<time>2009-07-13 21:00:00</time>
<desc></desc>
<name>nm leehmyda</name>
<sym>Flag, Blue</sym>
</wpt>

<wpt lat='32.86282' lon='-3.00345'>
<ele></ele>
<time>2009-07-13 21:00:00</time>
<desc></desc>
<name>nm leehmyda</name>
<sym>Flag, Blue</sym>
</wpt>

<wpt lat='32.86282' lon='-3.00345'>
<ele></ele>
<time>2009-07-13 21:00:00</time>
<desc></desc>
<name>nm leehmyda</name>
<sym>Flag, Blue</sym>
</wpt>

<wpt lat='32.86282' lon='-3.00345'>
<ele></ele>
<time>2009-07-13 21:00:00</time>
<desc></desc>
<name>nm leehmyda</name>
<sym>Flag, Blue</sym>
</wpt>

<wpt lat='32.86282' lon='-3.00345'>
<ele></ele>
<time>2009-07-13 21:00:00</time>
<desc></desc>
<name>nm leehmyda</name>
<sym>Flag, Blue</sym>
</wpt>

<wpt lat='32.86282' lon='-3.00345'>
<ele></ele>
<time>2009-07-13 21:00:00</time>
<desc></desc>
<name>nm leehmyda</name>
<sym>Flag, Blue</sym>
</wpt>

<wpt lat='32.61308' lon='-2.29591'>
<ele></ele>
<time>2007-07-18 00:00:00</time>
<desc></desc>
<name>None</name>
<sym>Flag, Blue</sym>
</wpt>

<wpt lat='32.61308' lon='-2.29591'>
<ele></ele>
<time>2007-07-18 00:00:00</time>
<desc></desc>
<name>None</name>
<sym>Flag, Blue</sym>
</wpt>

<wpt lat='32.61308' lon='-2.29591'>
<ele></ele>
<time>2007-07-18 00:00:00</time>
<desc></desc>
<name>None</name>
<sym>Flag, Blue</sym>
</wpt>

<wpt lat='32.61308' lon='-2.29591'>
<ele></ele>
<time>2007-07-18 00:00:00</time>
<desc></desc>
<name>None</name>
<sym>Flag, Blue</sym>
</wpt>

<wpt lat='32.61308' lon='-2.29591'>
<ele></ele>
<time>2007-07-18 00:00:00</time>
<desc></desc>
<name>None</name>
<sym>Flag, Blue</sym>
</wpt>

<wpt lat='32.61308' lon='-2.29591'>
<ele></ele>
<time>2007-07-18 00:00:00</time>
<desc></desc>
<name>None</name>
<sym>Flag, Blue</sym>
</wpt>

<wpt lat='32.61308' lon='-2.29591'>
<ele></ele>
<time>2007-07-18 00:00:00</time>
<desc></desc>
<name>None</name>
<sym>Flag, Blue</sym>
</wpt>

<wpt lat='32.61308' lon='-2.29591'>
<ele></ele>
<time>2007-07-18 00:00:00</time>
<desc></desc>
<name>None</name>
<sym>Flag, Blue</sym>
</wpt>

<wpt lat='32.61308' lon='-2.29591'>
<ele></ele>
<time>2007-07-18 00:00:00</time>
<desc></desc>
<name>None</name>
<sym>Flag, Blue</sym>
</wpt>

<wpt lat='32.61308' lon='-2.29591'>
<ele></ele>
<time>2007-07-18 00:00:00</time>
<desc></desc>
<name>None</name>
<sym>Flag, Blue</sym>
</wpt>

<wpt lat='32.61308' lon='-2.29591'>
<ele></ele>
<time>2007-07-18 00:00:00</time>
<desc></desc>
<name>None</name>
<sym>Flag, Blue</sym>
</wpt>

<wpt lat='30.45420' lon='-6.95883'>
<ele></ele>
<time>2011-08-10 00:00:01</time>
<desc></desc>
<name>nm amazigh</name>
<sym>Flag, Blue</sym>
</wpt>

<wpt lat='33.96965' lon='-3.03957'>
<ele></ele>
<time>2012-08-02 19:00:00</time>
<desc></desc>
<name>kehf sbaa</name>
<sym>Flag, Blue</sym>
</wpt>

<wpt lat='33.96965' lon='-3.03957'>
<ele></ele>
<time>2012-08-02 19:00:00</time>
<desc></desc>
<name>kehf sbaa</name>
<sym>Flag, Blue</sym>
</wpt>

<wpt lat='33.96965' lon='-3.03957'>
<ele></ele>
<time>2012-08-02 19:00:00</time>
<desc></desc>
<name>kehf sbaa</name>
<sym>Flag, Blue</sym>
</wpt>

<wpt lat='32.96439' lon='-4.70761'>
<ele></ele>
<time>2012-08-07 19:00:00</time>
<desc></desc>
<name>nm khokhat</name>
<sym>Flag, Blue</sym>
</wpt>

<wpt lat='32.96439' lon='-4.70761'>
<ele></ele>
<time>2012-08-07 19:00:00</time>
<desc></desc>
<name>nm khokhat</name>
<sym>Flag, Blue</sym>
</wpt>

<wpt lat='32.96439' lon='-4.70761'>
<ele></ele>
<time>2012-08-07 19:00:00</time>
<desc></desc>
<name>nm khokhat</name>
<sym>Flag, Blue</sym>
</wpt>

<wpt lat='32.34180' lon='-3.09919'>
<ele></ele>
<time>2012-07-24 19:00:00</time>
<desc></desc>
<name>oued moguir</name>
<sym>Flag, Blue</sym>
</wpt>

<wpt lat='32.34180' lon='-3.09919'>
<ele></ele>
<time>2012-07-24 19:00:00</time>
<desc></desc>
<name>oued moguir</name>
<sym>Flag, Blue</sym>
</wpt>

<wpt lat='33.85243' lon='-3.10261'>
<ele></ele>
<time>2013-07-02 19:00:00</time>
<desc></desc>
<name>kehf zhidat lamaalmine</name>
<sym>Flag, Blue</sym>
</wpt>

<wpt lat='33.85243' lon='-3.10261'>
<ele></ele>
<time>2013-07-02 19:00:00</time>
<desc></desc>
<name>kehf zhidat lamaalmine</name>
<sym>Flag, Blue</sym>
</wpt>

<wpt lat='33.85243' lon='-3.10261'>
<ele></ele>
<time>2013-07-02 19:00:00</time>
<desc></desc>
<name>kehf zhidat lamaalmine</name>
<sym>Flag, Blue</sym>
</wpt>

<wpt lat='33.65024' lon='-4.16265'>
<ele></ele>
<time>2013-07-27 19:30:00</time>
<desc></desc>
<name>None</name>
<sym>Flag, Blue</sym>
</wpt>

<wpt lat='33.65024' lon='-4.16265'>
<ele></ele>
<time>2013-07-27 19:30:00</time>
<desc></desc>
<name>None</name>
<sym>Flag, Blue</sym>
</wpt>

<wpt lat='33.65024' lon='-4.16265'>
<ele></ele>
<time>2013-07-28 00:00:01</time>
<desc></desc>
<name>None</name>
<sym>Flag, Blue</sym>
</wpt>

<wpt lat='33.65024' lon='-4.16265'>
<ele></ele>
<time>2013-07-28 00:00:01</time>
<desc></desc>
<name>None</name>
<sym>Flag, Blue</sym>
</wpt>

<wpt lat='32.20239' lon='-1.94436'>
<ele></ele>
<time>2009-08-18 19:00:00</time>
<desc></desc>
<name>nm tanazara</name>
<sym>Flag, Blue</sym>
</wpt>

<wpt lat='32.20239' lon='-1.94436'>
<ele></ele>
<time>2009-08-18 19:00:00</time>
<desc></desc>
<name>nm tanazara</name>
<sym>Flag, Blue</sym>
</wpt>

<wpt lat='32.20239' lon='-1.94436'>
<ele></ele>
<time>2009-08-18 19:00:00</time>
<desc></desc>
<name>nm tanazara</name>
<sym>Flag, Blue</sym>
</wpt>

<wpt lat='32.20239' lon='-1.94436'>
<ele></ele>
<time>2009-08-18 19:00:00</time>
<desc></desc>
<name>nm tanazara</name>
<sym>Flag, Blue</sym>
</wpt>

<wpt lat='32.20239' lon='-1.94436'>
<ele></ele>
<time>2009-08-18 19:00:00</time>
<desc></desc>
<name>nm tanazara</name>
<sym>Flag, Blue</sym>
</wpt>

<wpt lat='32.20239' lon='-1.94436'>
<ele></ele>
<time>2009-08-18 19:00:00</time>
<desc></desc>
<name>nm tanazara</name>
<sym>Flag, Blue</sym>
</wpt>

<wpt lat='32.20239' lon='-1.94436'>
<ele></ele>
<time>2009-08-18 19:00:00</time>
<desc></desc>
<name>nm tanazara</name>
<sym>Flag, Blue</sym>
</wpt>

<wpt lat='32.20239' lon='-1.94436'>
<ele></ele>
<time>2009-08-18 19:00:00</time>
<desc></desc>
<name>nm tanazara</name>
<sym>Flag, Blue</sym>
</wpt>

<wpt lat='32.64283' lon='-3.85950'>
<ele></ele>
<time>2009-09-04 00:00:00</time>
<desc></desc>
<name>kehf ksar el kaf</name>
<sym>Flag, Blue</sym>
</wpt>

<wpt lat='32.64283' lon='-3.85950'>
<ele></ele>
<time>2009-09-04 00:00:00</time>
<desc></desc>
<name>kehf ksar el kaf</name>
<sym>Flag, Blue</sym>
</wpt>

<wpt lat='32.64283' lon='-3.85950'>
<ele></ele>
<time>2009-09-04 00:00:00</time>
<desc></desc>
<name>kehf ksar el kaf</name>
<sym>Flag, Blue</sym>
</wpt>

<wpt lat='32.64283' lon='-3.85950'>
<ele></ele>
<time>2009-09-04 00:00:00</time>
<desc></desc>
<name>kehf ksar el kaf</name>
<sym>Flag, Blue</sym>
</wpt>

<wpt lat='32.64283' lon='-3.85950'>
<ele></ele>
<time>2009-09-04 00:00:00</time>
<desc></desc>
<name>kehf ksar el kaf</name>
<sym>Flag, Blue</sym>
</wpt>

<wpt lat='32.64283' lon='-3.85950'>
<ele></ele>
<time>2009-09-04 00:00:00</time>
<desc></desc>
<name>kehf ksar el kaf</name>
<sym>Flag, Blue</sym>
</wpt>

<wpt lat='32.64283' lon='-3.85950'>
<ele></ele>
<time>2009-09-04 00:00:00</time>
<desc></desc>
<name>kehf ksar el kaf</name>
<sym>Flag, Blue</sym>
</wpt>

<wpt lat='32.64283' lon='-3.85950'>
<ele></ele>
<time>2009-09-04 00:00:00</time>
<desc></desc>
<name>kehf ksar el kaf</name>
<sym>Flag, Blue</sym>
</wpt>

<wpt lat='32.64283' lon='-3.85950'>
<ele></ele>
<time>2009-09-04 00:00:00</time>
<desc></desc>
<name>kehf ksar el kaf</name>
<sym>Flag, Blue</sym>
</wpt>

<wpt lat='32.64283' lon='-3.85950'>
<ele></ele>
<time>2009-09-04 00:00:00</time>
<desc></desc>
<name>kehf ksar el kaf</name>
<sym>Flag, Blue</sym>
</wpt>

<wpt lat='32.64283' lon='-3.85950'>
<ele></ele>
<time>2009-09-04 00:00:00</time>
<desc></desc>
<name>kehf ksar el kaf</name>
<sym>Flag, Blue</sym>
</wpt>

<wpt lat='32.64283' lon='-3.85950'>
<ele></ele>
<time>2009-09-03 19:30:00</time>
<desc></desc>
<name>kehf ksar el kaf</name>
<sym>Flag, Blue</sym>
</wpt>

<wpt lat='32.64283' lon='-3.85950'>
<ele></ele>
<time>2009-09-03 19:30:00</time>
<desc></desc>
<name>kehf ksar el kaf</name>
<sym>Flag, Blue</sym>
</wpt>

<wpt lat='32.64283' lon='-3.85950'>
<ele></ele>
<time>2009-09-03 19:30:00</time>
<desc></desc>
<name>kehf ksar el kaf</name>
<sym>Flag, Blue</sym>
</wpt>

<wpt lat='32.64283' lon='-3.85950'>
<ele></ele>
<time>2009-09-03 19:30:00</time>
<desc></desc>
<name>kehf ksar el kaf</name>
<sym>Flag, Blue</sym>
</wpt>

<wpt lat='32.98319' lon='-3.88893'>
<ele></ele>
<time>2008-07-11 00:00:00</time>
<desc></desc>
<name>None</name>
<sym>Flag, Blue</sym>
</wpt>

<wpt lat='29.72124' lon='-7.65661'>
<ele></ele>
<time>2011-08-15 00:00:01</time>
<desc></desc>
<name>None</name>
<sym>Flag, Blue</sym>
</wpt>

<wpt lat='29.87512' lon='-6.71120'>
<ele></ele>
<time>2011-08-11 00:00:01</time>
<desc></desc>
<name>nm loumkil</name>
<sym>Flag, Blue</sym>
</wpt>

<wpt lat='32.59446' lon='-4.19636'>
<ele></ele>
<time>2013-07-24 19:30:00</time>
<desc></desc>
<name>mine iwodi</name>
<sym>Flag, Blue</sym>
</wpt>

<wpt lat='33.65024' lon='-4.16265'>
<ele></ele>
<time>2013-07-30 00:00:01</time>
<desc></desc>
<name>None</name>
<sym>Flag, Blue</sym>
</wpt>

<wpt lat='33.65024' lon='-4.16265'>
<ele></ele>
<time>2013-07-30 00:00:01</time>
<desc></desc>
<name>None</name>
<sym>Flag, Blue</sym>
</wpt>

<wpt lat='33.65024' lon='-4.16265'>
<ele></ele>
<time>2013-07-30 00:00:01</time>
<desc></desc>
<name>None</name>
<sym>Flag, Blue</sym>
</wpt>

<wpt lat='33.65024' lon='-4.16265'>
<ele></ele>
<time>2013-07-30 00:00:01</time>
<desc></desc>
<name>None</name>
<sym>Flag, Blue</sym>
</wpt>

<wpt lat='32.86282' lon='-3.00345'>
<ele></ele>
<time>2009-07-13 21:00:00</time>
<desc></desc>
<name>nm leehmyda</name>
<sym>Flag, Blue</sym>
</wpt>

<wpt lat='32.86282' lon='-3.00345'>
<ele></ele>
<time>2009-07-13 21:00:00</time>
<desc></desc>
<name>nm leehmyda</name>
<sym>Flag, Blue</sym>
</wpt>

<wpt lat='32.86282' lon='-3.00345'>
<ele></ele>
<time>2009-07-13 21:00:00</time>
<desc></desc>
<name>nm leehmyda</name>
<sym>Flag, Blue</sym>
</wpt>

<wpt lat='33.96965' lon='-3.03957'>
<ele></ele>
<time>2009-07-31 00:00:00</time>
<desc></desc>
<name>kehf sbaa</name>
<sym>Flag, Blue</sym>
</wpt>

<wpt lat='33.14326' lon='-4.30833'>
<ele></ele>
<time>2009-08-08 19:09:00</time>
<desc></desc>
<name>oued chouf sherg borj</name>
<sym>Flag, Blue</sym>
</wpt>

<wpt lat='33.14326' lon='-4.30833'>
<ele></ele>
<time>2009-08-08 19:09:00</time>
<desc></desc>
<name>oued chouf sherg borj</name>
<sym>Flag, Blue</sym>
</wpt>

<wpt lat='33.14326' lon='-4.30833'>
<ele></ele>
<time>2009-08-08 19:09:00</time>
<desc></desc>
<name>oued chouf sherg borj</name>
<sym>Flag, Blue</sym>
</wpt>

<wpt lat='33.14326' lon='-4.30833'>
<ele></ele>
<time>2009-08-08 19:09:00</time>
<desc></desc>
<name>oued chouf sherg borj</name>
<sym>Flag, Blue</sym>
</wpt>

<wpt lat='33.14326' lon='-4.30833'>
<ele></ele>
<time>2009-08-08 19:09:00</time>
<desc></desc>
<name>oued chouf sherg borj</name>
<sym>Flag, Blue</sym>
</wpt>

<wpt lat='33.14326' lon='-4.30833'>
<ele></ele>
<time>2009-08-08 19:09:00</time>
<desc></desc>
<name>oued chouf sherg borj</name>
<sym>Flag, Blue</sym>
</wpt>

<wpt lat='33.14326' lon='-4.30833'>
<ele></ele>
<time>2009-08-08 19:09:00</time>
<desc></desc>
<name>oued chouf sherg borj</name>
<sym>Flag, Blue</sym>
</wpt>

<wpt lat='33.14326' lon='-4.30833'>
<ele></ele>
<time>2009-08-08 19:09:00</time>
<desc></desc>
<name>oued chouf sherg borj</name>
<sym>Flag, Blue</sym>
</wpt>

<wpt lat='33.14326' lon='-4.30833'>
<ele></ele>
<time>2009-08-08 19:09:00</time>
<desc></desc>
<name>oued chouf sherg borj</name>
<sym>Flag, Blue</sym>
</wpt>

<wpt lat='32.65052' lon='-4.21610'>
<ele></ele>
<time>2009-07-23 19:00:00</time>
<desc></desc>
<name>mine aujargha</name>
<sym>Flag, Blue</sym>
</wpt>

<wpt lat='32.65052' lon='-4.21610'>
<ele></ele>
<time>2009-07-23 19:00:00</time>
<desc></desc>
<name>mine aujargha</name>
<sym>Flag, Blue</sym>
</wpt>

<wpt lat='32.65052' lon='-4.21610'>
<ele></ele>
<time>2009-07-23 19:00:00</time>
<desc></desc>
<name>mine aujargha</name>
<sym>Flag, Blue</sym>
</wpt>

<wpt lat='32.98959' lon='-4.49833'>
<ele></ele>
<time>2009-08-06 19:00:00</time>
<desc></desc>
<name>jorf sud ouchilas</name>
<sym>Flag, Blue</sym>
</wpt>

<wpt lat='32.98959' lon='-4.49833'>
<ele></ele>
<time>2009-08-06 19:00:00</time>
<desc></desc>
<name>jorf sud ouchilas</name>
<sym>Flag, Blue</sym>
</wpt>

<wpt lat='32.98959' lon='-4.49833'>
<ele></ele>
<time>2009-08-06 19:00:00</time>
<desc></desc>
<name>jorf sud ouchilas</name>
<sym>Flag, Blue</sym>
</wpt>

<wpt lat='32.80970' lon='-1.67328'>
<ele></ele>
<time>2009-08-19 19:00:00</time>
<desc></desc>
<name>nm chott tigri</name>
<sym>Flag, Blue</sym>
</wpt>

<wpt lat='32.80970' lon='-1.67328'>
<ele></ele>
<time>2009-08-19 19:00:00</time>
<desc></desc>
<name>nm chott tigri</name>
<sym>Flag, Blue</sym>
</wpt>

<wpt lat='32.80970' lon='-1.67328'>
<ele></ele>
<time>2009-08-19 19:00:00</time>
<desc></desc>
<name>nm chott tigri</name>
<sym>Flag, Blue</sym>
</wpt>

<wpt lat='32.80970' lon='-1.67328'>
<ele></ele>
<time>2009-08-19 19:00:00</time>
<desc></desc>
<name>nm chott tigri</name>
<sym>Flag, Blue</sym>
</wpt>

<wpt lat='32.80970' lon='-1.67328'>
<ele></ele>
<time>2009-08-19 19:00:00</time>
<desc></desc>
<name>nm chott tigri</name>
<sym>Flag, Blue</sym>
</wpt>

<wpt lat='32.80970' lon='-1.67328'>
<ele></ele>
<time>2009-08-19 19:00:00</time>
<desc></desc>
<name>nm chott tigri</name>
<sym>Flag, Blue</sym>
</wpt>

<wpt lat='32.80970' lon='-1.67328'>
<ele></ele>
<time>2009-08-19 19:00:00</time>
<desc></desc>
<name>nm chott tigri</name>
<sym>Flag, Blue</sym>
</wpt>

<wpt lat='32.80970' lon='-1.67328'>
<ele></ele>
<time>2009-08-19 19:00:00</time>
<desc></desc>
<name>nm chott tigri</name>
<sym>Flag, Blue</sym>
</wpt>

<wpt lat='32.80970' lon='-1.67328'>
<ele></ele>
<time>2009-08-19 19:00:00</time>
<desc></desc>
<name>nm chott tigri</name>
<sym>Flag, Blue</sym>
</wpt>

<wpt lat='32.80970' lon='-1.67328'>
<ele></ele>
<time>2009-08-19 19:00:00</time>
<desc></desc>
<name>nm chott tigri</name>
<sym>Flag, Blue</sym>
</wpt>

<wpt lat='32.80970' lon='-1.67328'>
<ele></ele>
<time>2009-08-19 19:00:00</time>
<desc></desc>
<name>nm chott tigri</name>
<sym>Flag, Blue</sym>
</wpt>

<wpt lat='32.80970' lon='-1.67328'>
<ele></ele>
<time>2009-08-19 19:00:00</time>
<desc></desc>
<name>nm chott tigri</name>
<sym>Flag, Blue</sym>
</wpt>

<wpt lat='32.80970' lon='-1.67328'>
<ele></ele>
<time>2009-08-19 19:00:00</time>
<desc></desc>
<name>nm chott tigri</name>
<sym>Flag, Blue</sym>
</wpt>

<wpt lat='32.80970' lon='-1.67328'>
<ele></ele>
<time>2009-08-19 19:00:00</time>
<desc></desc>
<name>nm chott tigri</name>
<sym>Flag, Blue</sym>
</wpt>

<wpt lat='32.80970' lon='-1.67328'>
<ele></ele>
<time>2009-08-19 19:00:00</time>
<desc></desc>
<name>nm chott tigri</name>
<sym>Flag, Blue</sym>
</wpt>

<wpt lat='32.80970' lon='-1.67328'>
<ele></ele>
<time>2009-08-19 19:00:00</time>
<desc></desc>
<name>nm chott tigri</name>
<sym>Flag, Blue</sym>
</wpt>

<wpt lat='32.80970' lon='-1.67328'>
<ele></ele>
<time>2009-08-19 19:00:00</time>
<desc></desc>
<name>nm chott tigri</name>
<sym>Flag, Blue</sym>
</wpt>

<wpt lat='32.80970' lon='-1.67328'>
<ele></ele>
<time>2009-08-19 19:00:00</time>
<desc></desc>
<name>nm chott tigri</name>
<sym>Flag, Blue</sym>
</wpt>

<wpt lat='32.80970' lon='-1.67328'>
<ele></ele>
<time>2009-08-19 19:00:00</time>
<desc></desc>
<name>nm chott tigri</name>
<sym>Flag, Blue</sym>
</wpt>

<wpt lat='32.80970' lon='-1.67328'>
<ele></ele>
<time>2009-08-19 19:00:00</time>
<desc></desc>
<name>nm chott tigri</name>
<sym>Flag, Blue</sym>
</wpt>

<wpt lat='32.80970' lon='-1.67328'>
<ele></ele>
<time>2009-08-19 19:00:00</time>
<desc></desc>
<name>nm chott tigri</name>
<sym>Flag, Blue</sym>
</wpt>

<wpt lat='32.80970' lon='-1.67328'>
<ele></ele>
<time>2009-08-19 19:00:00</time>
<desc></desc>
<name>nm chott tigri</name>
<sym>Flag, Blue</sym>
</wpt>

<wpt lat='32.40584' lon='-1.96477'>
<ele></ele>
<time>2009-08-31 19:00:00</time>
<desc></desc>
<name>kehf galb nhasse</name>
<sym>Flag, Blue</sym>
</wpt>

<wpt lat='32.40584' lon='-1.96477'>
<ele></ele>
<time>2009-08-31 19:00:00</time>
<desc></desc>
<name>kehf galb nhasse</name>
<sym>Flag, Blue</sym>
</wpt>

<wpt lat='32.40584' lon='-1.96477'>
<ele></ele>
<time>2009-08-31 19:00:00</time>
<desc></desc>
<name>kehf galb nhasse</name>
<sym>Flag, Blue</sym>
</wpt>

<wpt lat='32.40584' lon='-1.96477'>
<ele></ele>
<time>2009-08-31 19:00:00</time>
<desc></desc>
<name>kehf galb nhasse</name>
<sym>Flag, Blue</sym>
</wpt>

<wpt lat='32.40584' lon='-1.96477'>
<ele></ele>
<time>2009-08-31 19:00:00</time>
<desc></desc>
<name>kehf galb nhasse</name>
<sym>Flag, Blue</sym>
</wpt>

<wpt lat='32.40584' lon='-1.96477'>
<ele></ele>
<time>2009-08-31 19:00:00</time>
<desc></desc>
<name>kehf galb nhasse</name>
<sym>Flag, Blue</sym>
</wpt>

<wpt lat='32.40584' lon='-1.96477'>
<ele></ele>
<time>2009-08-31 19:00:00</time>
<desc></desc>
<name>kehf galb nhasse</name>
<sym>Flag, Blue</sym>
</wpt>

<wpt lat='32.40584' lon='-1.96477'>
<ele></ele>
<time>2009-08-31 19:00:00</time>
<desc></desc>
<name>kehf galb nhasse</name>
<sym>Flag, Blue</sym>
</wpt>

<wpt lat='32.40584' lon='-1.96477'>
<ele></ele>
<time>2009-09-01 00:00:00</time>
<desc></desc>
<name>kehf galb nhasse</name>
<sym>Flag, Blue</sym>
</wpt>

<wpt lat='32.40584' lon='-1.96477'>
<ele></ele>
<time>2009-09-01 00:00:00</time>
<desc></desc>
<name>kehf galb nhasse</name>
<sym>Flag, Blue</sym>
</wpt>

<wpt lat='29.70845' lon='-7.99699'>
<ele></ele>
<time>2011-08-17 19:00:00</time>
<desc></desc>
<name>nm taghla</name>
<sym>Flag, Blue</sym>
</wpt>

<wpt lat='33.54316' lon='-3.90921'>
<ele></ele>
<time>2012-08-11 19:00:00</time>
<desc></desc>
<name>kehf jnoun</name>
<sym>Flag, Blue</sym>
</wpt>

<wpt lat='33.54316' lon='-3.90921'>
<ele></ele>
<time>2012-08-11 19:00:00</time>
<desc></desc>
<name>kehf jnoun</name>
<sym>Flag, Blue</sym>
</wpt>

<wpt lat='33.54316' lon='-3.90921'>
<ele></ele>
<time>2012-08-11 19:00:00</time>
<desc></desc>
<name>kehf jnoun</name>
<sym>Flag, Blue</sym>
</wpt>

<wpt lat='33.54316' lon='-3.90921'>
<ele></ele>
<time>2012-08-12 00:01:00</time>
<desc></desc>
<name>kehf jnoun</name>
<sym>Flag, Blue</sym>
</wpt>

<wpt lat='33.54316' lon='-3.90921'>
<ele></ele>
<time>2012-08-12 00:01:00</time>
<desc></desc>
<name>kehf jnoun</name>
<sym>Flag, Blue</sym>
</wpt>

<wpt lat='33.54316' lon='-3.90921'>
<ele></ele>
<time>2012-08-12 00:01:00</time>
<desc></desc>
<name>kehf jnoun</name>
<sym>Flag, Blue</sym>
</wpt>

<wpt lat='33.54316' lon='-3.90921'>
<ele></ele>
<time>2012-08-12 00:01:00</time>
<desc></desc>
<name>kehf jnoun</name>
<sym>Flag, Blue</sym>
</wpt>

<wpt lat='32.71686' lon='-3.61896'>
<ele></ele>
<time>2007-09-06 18:27:00</time>
<desc></desc>
<name>mine merija</name>
<sym>Flag, Blue</sym>
</wpt>

<wpt lat='32.37817' lon='-1.39382'>
<ele></ele>
<time>2007-09-18 18:10:00</time>
<desc></desc>
<name>nm melha</name>
<sym>Flag, Blue</sym>
</wpt>

<wpt lat='32.37817' lon='-1.39382'>
<ele></ele>
<time>2007-09-18 18:10:00</time>
<desc></desc>
<name>nm melha</name>
<sym>Flag, Blue</sym>
</wpt>

<wpt lat='32.39199' lon='-2.46646'>
<ele></ele>
<time>2007-07-01 00:00:01</time>
<desc></desc>
<name>kehf hazma</name>
<sym>Flag, Blue</sym>
</wpt>

<wpt lat='32.39199' lon='-2.46646'>
<ele></ele>
<time>2007-07-01 00:00:01</time>
<desc></desc>
<name>kehf hazma</name>
<sym>Flag, Blue</sym>
</wpt>

<wpt lat='33.36258' lon='-4.01554'>
<ele></ele>
<time>2007-06-16 19:19:00</time>
<desc></desc>
<name>kehf iselfen</name>
<sym>Flag, Blue</sym>
</wpt>

<wpt lat='33.36258' lon='-4.01554'>
<ele></ele>
<time>2007-06-16 19:19:00</time>
<desc></desc>
<name>kehf iselfen</name>
<sym>Flag, Blue</sym>
</wpt>

<wpt lat='33.36258' lon='-4.01554'>
<ele></ele>
<time>2007-06-16 19:19:00</time>
<desc></desc>
<name>kehf iselfen</name>
<sym>Flag, Blue</sym>
</wpt>

<wpt lat='33.36258' lon='-4.01554'>
<ele></ele>
<time>2007-06-17 00:00:00</time>
<desc></desc>
<name>kehf iselfen</name>
<sym>Flag, Blue</sym>
</wpt>

<wpt lat='33.36258' lon='-4.01554'>
<ele></ele>
<time>2007-06-17 00:00:00</time>
<desc></desc>
<name>kehf iselfen</name>
<sym>Flag, Blue</sym>
</wpt>

<wpt lat='33.36258' lon='-4.01554'>
<ele></ele>
<time>2007-06-17 00:00:00</time>
<desc></desc>
<name>kehf iselfen</name>
<sym>Flag, Blue</sym>
</wpt>

<wpt lat='33.36258' lon='-4.01554'>
<ele></ele>
<time>2007-06-17 00:00:00</time>
<desc></desc>
<name>kehf iselfen</name>
<sym>Flag, Blue</sym>
</wpt>

<wpt lat='32.25056' lon='-2.52847'>
<ele></ele>
<time>2008-06-10 19:17:00</time>
<desc></desc>
<name>nm mengoub</name>
<sym>Flag, Blue</sym>
</wpt>

<wpt lat='32.25056' lon='-2.52847'>
<ele></ele>
<time>2008-06-10 19:17:00</time>
<desc></desc>
<name>nm mengoub</name>
<sym>Flag, Blue</sym>
</wpt>

<wpt lat='32.25056' lon='-2.52847'>
<ele></ele>
<time>2008-06-10 19:17:00</time>
<desc></desc>
<name>nm mengoub</name>
<sym>Flag, Blue</sym>
</wpt>

<wpt lat='32.25056' lon='-2.52847'>
<ele></ele>
<time>2008-06-10 19:17:00</time>
<desc></desc>
<name>nm mengoub</name>
<sym>Flag, Blue</sym>
</wpt>

<wpt lat='32.25056' lon='-2.52847'>
<ele></ele>
<time>2008-06-10 19:17:00</time>
<desc></desc>
<name>nm mengoub</name>
<sym>Flag, Blue</sym>
</wpt>

<wpt lat='32.25056' lon='-2.52847'>
<ele></ele>
<time>2008-06-10 19:17:00</time>
<desc></desc>
<name>nm mengoub</name>
<sym>Flag, Blue</sym>
</wpt>

<wpt lat='32.25056' lon='-2.52847'>
<ele></ele>
<time>2008-06-10 19:17:00</time>
<desc></desc>
<name>nm mengoub</name>
<sym>Flag, Blue</sym>
</wpt>

<wpt lat='32.25056' lon='-2.52847'>
<ele></ele>
<time>2008-06-10 19:17:00</time>
<desc></desc>
<name>nm mengoub</name>
<sym>Flag, Blue</sym>
</wpt>

<wpt lat='32.59219' lon='-2.53814'>
<ele></ele>
<time>2007-05-29 19:10:00</time>
<desc></desc>
<name>nm ain arak</name>
<sym>Flag, Blue</sym>
</wpt>

<wpt lat='32.59219' lon='-2.53814'>
<ele></ele>
<time>2007-05-29 19:10:00</time>
<desc></desc>
<name>nm ain arak</name>
<sym>Flag, Blue</sym>
</wpt>

<wpt lat='32.91435' lon='-3.35805'>
<ele></ele>
<time>2008-08-18 18:52:00</time>
<desc></desc>
<name>oued kaddou</name>
<sym>Flag, Blue</sym>
</wpt>

<wpt lat='32.91435' lon='-3.35805'>
<ele></ele>
<time>2008-08-18 18:52:00</time>
<desc></desc>
<name>oued kaddou</name>
<sym>Flag, Blue</sym>
</wpt>

<wpt lat='32.91435' lon='-3.35805'>
<ele></ele>
<time>2008-08-18 18:52:00</time>
<desc></desc>
<name>oued kaddou</name>
<sym>Flag, Blue</sym>
</wpt>

<wpt lat='32.91435' lon='-3.35805'>
<ele></ele>
<time>2008-08-18 18:52:00</time>
<desc></desc>
<name>oued kaddou</name>
<sym>Flag, Blue</sym>
</wpt>

<wpt lat='32.91435' lon='-3.35805'>
<ele></ele>
<time>2008-08-18 18:52:00</time>
<desc></desc>
<name>oued kaddou</name>
<sym>Flag, Blue</sym>
</wpt>

<wpt lat='32.61308' lon='-2.29591'>
<ele></ele>
<time>2007-05-17 19:01:00</time>
<desc></desc>
<name>nm n'sissa</name>
<sym>Flag, Blue</sym>
</wpt>

<wpt lat='32.61308' lon='-2.29591'>
<ele></ele>
<time>2007-05-17 19:01:00</time>
<desc></desc>
<name>nm n'sissa</name>
<sym>Flag, Blue</sym>
</wpt>

<wpt lat='32.61308' lon='-2.29591'>
<ele></ele>
<time>2007-05-17 19:01:00</time>
<desc></desc>
<name>nm n'sissa</name>
<sym>Flag, Blue</sym>
</wpt>

<wpt lat='32.28452' lon='-2.45582'>
<ele></ele>
<time>2007-05-16 19:01:00</time>
<desc></desc>
<name>kehf mengoub2</name>
<sym>Flag, Blue</sym>
</wpt>

<wpt lat='32.28452' lon='-2.45582'>
<ele></ele>
<time>2007-05-16 19:01:00</time>
<desc></desc>
<name>kehf mengoub2</name>
<sym>Flag, Blue</sym>
</wpt>

<wpt lat='32.28452' lon='-2.45582'>
<ele></ele>
<time>2007-05-16 19:01:00</time>
<desc></desc>
<name>kehf mengoub2</name>
<sym>Flag, Blue</sym>
</wpt>

<wpt lat='32.28452' lon='-2.45582'>
<ele></ele>
<time>2007-05-16 19:01:00</time>
<desc></desc>
<name>kehf mengoub2</name>
<sym>Flag, Blue</sym>
</wpt>

<wpt lat='32.28452' lon='-2.45582'>
<ele></ele>
<time>2007-05-16 19:01:00</time>
<desc></desc>
<name>kehf mengoub2</name>
<sym>Flag, Blue</sym>
</wpt>

<wpt lat='32.28452' lon='-2.45582'>
<ele></ele>
<time>2007-05-16 19:01:00</time>
<desc></desc>
<name>kehf mengoub2</name>
<sym>Flag, Blue</sym>
</wpt>

<wpt lat='32.28452' lon='-2.45582'>
<ele></ele>
<time>2007-05-16 19:01:00</time>
<desc></desc>
<name>kehf mengoub2</name>
<sym>Flag, Blue</sym>
</wpt>

<wpt lat='32.28452' lon='-2.45582'>
<ele></ele>
<time>2007-05-16 19:01:00</time>
<desc></desc>
<name>kehf mengoub2</name>
<sym>Flag, Blue</sym>
</wpt>

<wpt lat='32.28452' lon='-2.45582'>
<ele></ele>
<time>2007-05-16 19:01:00</time>
<desc></desc>
<name>kehf mengoub2</name>
<sym>Flag, Blue</sym>
</wpt>

<wpt lat='32.28452' lon='-2.45582'>
<ele></ele>
<time>2007-05-16 19:01:00</time>
<desc></desc>
<name>kehf mengoub2</name>
<sym>Flag, Blue</sym>
</wpt>

<wpt lat='32.28452' lon='-2.45582'>
<ele></ele>
<time>2007-05-16 19:01:00</time>
<desc></desc>
<name>kehf mengoub2</name>
<sym>Flag, Blue</sym>
</wpt>

<wpt lat='32.79039' lon='-3.53284'>
<ele></ele>
<time>2009-07-08 00:00:00</time>
<desc></desc>
<name>nm leuh</name>
<sym>Flag, Blue</sym>
</wpt>

<wpt lat='32.79039' lon='-3.53284'>
<ele></ele>
<time>2009-07-08 00:00:00</time>
<desc></desc>
<name>nm leuh</name>
<sym>Flag, Blue</sym>
</wpt>

<wpt lat='32.79039' lon='-3.53284'>
<ele></ele>
<time>2009-07-08 00:00:00</time>
<desc></desc>
<name>nm leuh</name>
<sym>Flag, Blue</sym>
</wpt>

<wpt lat='32.79039' lon='-3.53284'>
<ele></ele>
<time>2009-07-08 00:00:00</time>
<desc></desc>
<name>nm leuh</name>
<sym>Flag, Blue</sym>
</wpt>

<wpt lat='32.79039' lon='-3.53284'>
<ele></ele>
<time>2009-07-08 00:00:00</time>
<desc></desc>
<name>nm leuh</name>
<sym>Flag, Blue</sym>
</wpt>

<wpt lat='32.79039' lon='-3.53284'>
<ele></ele>
<time>2009-07-08 00:00:00</time>
<desc></desc>
<name>nm leuh</name>
<sym>Flag, Blue</sym>
</wpt>

<wpt lat='32.79039' lon='-3.53284'>
<ele></ele>
<time>2009-07-08 00:00:00</time>
<desc></desc>
<name>nm leuh</name>
<sym>Flag, Blue</sym>
</wpt>

<wpt lat='32.70075' lon='-3.79857'>
<ele></ele>
<time>2009-08-16 00:00:00</time>
<desc></desc>
<name>nm taoura</name>
<sym>Flag, Blue</sym>
</wpt>

<wpt lat='32.70075' lon='-3.79857'>
<ele></ele>
<time>2009-08-16 00:00:00</time>
<desc></desc>
<name>nm taoura</name>
<sym>Flag, Blue</sym>
</wpt>

<wpt lat='32.70075' lon='-3.79857'>
<ele></ele>
<time>2009-08-16 00:00:00</time>
<desc></desc>
<name>nm taoura</name>
<sym>Flag, Blue</sym>
</wpt>

<wpt lat='32.70075' lon='-3.79857'>
<ele></ele>
<time>2009-08-16 00:00:00</time>
<desc></desc>
<name>nm taoura</name>
<sym>Flag, Blue</sym>
</wpt>

<wpt lat='32.51506' lon='-1.00983'>
<ele></ele>
<time>2009-08-03 19:00:00</time>
<desc></desc>
<name>nm ich</name>
<sym>Flag, Blue</sym>
</wpt>

<wpt lat='32.51506' lon='-1.00983'>
<ele></ele>
<time>2009-08-03 19:00:00</time>
<desc></desc>
<name>nm ich</name>
<sym>Flag, Blue</sym>
</wpt>

<wpt lat='32.51506' lon='-1.00983'>
<ele></ele>
<time>2009-08-03 19:00:00</time>
<desc></desc>
<name>nm ich</name>
<sym>Flag, Blue</sym>
</wpt>

<wpt lat='32.51506' lon='-1.00983'>
<ele></ele>
<time>2009-08-03 19:00:00</time>
<desc></desc>
<name>nm ich</name>
<sym>Flag, Blue</sym>
</wpt>

<wpt lat='32.51506' lon='-1.00983'>
<ele></ele>
<time>2009-08-03 19:00:00</time>
<desc></desc>
<name>nm ich</name>
<sym>Flag, Blue</sym>
</wpt>

<wpt lat='32.51506' lon='-1.00983'>
<ele></ele>
<time>2009-08-03 19:00:00</time>
<desc></desc>
<name>nm ich</name>
<sym>Flag, Blue</sym>
</wpt>

<wpt lat='32.51506' lon='-1.00983'>
<ele></ele>
<time>2009-08-03 19:00:00</time>
<desc></desc>
<name>nm ich</name>
<sym>Flag, Blue</sym>
</wpt>

<wpt lat='32.51506' lon='-1.00983'>
<ele></ele>
<time>2009-08-03 19:00:00</time>
<desc></desc>
<name>nm ich</name>
<sym>Flag, Blue</sym>
</wpt>

<wpt lat='32.51506' lon='-1.00983'>
<ele></ele>
<time>2009-08-03 19:00:00</time>
<desc></desc>
<name>nm ich</name>
<sym>Flag, Blue</sym>
</wpt>

<wpt lat='32.51506' lon='-1.00983'>
<ele></ele>
<time>2009-08-03 19:00:00</time>
<desc></desc>
<name>nm ich</name>
<sym>Flag, Blue</sym>
</wpt>

<wpt lat='32.51506' lon='-1.00983'>
<ele></ele>
<time>2009-08-03 19:00:00</time>
<desc></desc>
<name>nm ich</name>
<sym>Flag, Blue</sym>
</wpt>

<wpt lat='32.51506' lon='-1.00983'>
<ele></ele>
<time>2009-08-03 19:00:00</time>
<desc></desc>
<name>nm ich</name>
<sym>Flag, Blue</sym>
</wpt>

<wpt lat='32.51506' lon='-1.00983'>
<ele></ele>
<time>2009-08-03 19:00:00</time>
<desc></desc>
<name>nm ich</name>
<sym>Flag, Blue</sym>
</wpt>

<wpt lat='32.51506' lon='-1.00983'>
<ele></ele>
<time>2009-08-03 19:00:00</time>
<desc></desc>
<name>nm ich</name>
<sym>Flag, Blue</sym>
</wpt>

<wpt lat='32.51506' lon='-1.00983'>
<ele></ele>
<time>2009-08-03 19:00:00</time>
<desc></desc>
<name>nm ich</name>
<sym>Flag, Blue</sym>
</wpt>

<wpt lat='32.51506' lon='-1.00983'>
<ele></ele>
<time>2009-08-03 19:00:00</time>
<desc></desc>
<name>nm ich</name>
<sym>Flag, Blue</sym>
</wpt>

<wpt lat='32.51506' lon='-1.00983'>
<ele></ele>
<time>2009-08-03 19:00:00</time>
<desc></desc>
<name>nm ich</name>
<sym>Flag, Blue</sym>
</wpt>

<wpt lat='32.51506' lon='-1.00983'>
<ele></ele>
<time>2009-08-03 19:00:00</time>
<desc></desc>
<name>nm ich</name>
<sym>Flag, Blue</sym>
</wpt>

<wpt lat='32.51506' lon='-1.00983'>
<ele></ele>
<time>2009-08-03 19:00:00</time>
<desc></desc>
<name>nm ich</name>
<sym>Flag, Blue</sym>
</wpt>

<wpt lat='32.51506' lon='-1.00983'>
<ele></ele>
<time>2009-08-03 19:00:00</time>
<desc></desc>
<name>nm ich</name>
<sym>Flag, Blue</sym>
</wpt>

<wpt lat='32.51506' lon='-1.00983'>
<ele></ele>
<time>2009-08-03 19:00:00</time>
<desc></desc>
<name>nm ich</name>
<sym>Flag, Blue</sym>
</wpt>

<wpt lat='32.51506' lon='-1.00983'>
<ele></ele>
<time>2009-08-03 19:00:00</time>
<desc></desc>
<name>nm ich</name>
<sym>Flag, Blue</sym>
</wpt>

<wpt lat='32.51506' lon='-1.00983'>
<ele></ele>
<time>2009-08-03 19:00:00</time>
<desc></desc>
<name>nm ich</name>
<sym>Flag, Blue</sym>
</wpt>

<wpt lat='32.51506' lon='-1.00983'>
<ele></ele>
<time>2009-08-03 19:00:00</time>
<desc></desc>
<name>nm ich</name>
<sym>Flag, Blue</sym>
</wpt>

<wpt lat='32.51506' lon='-1.00983'>
<ele></ele>
<time>2009-08-03 19:00:00</time>
<desc></desc>
<name>nm ich</name>
<sym>Flag, Blue</sym>
</wpt>

<wpt lat='32.51506' lon='-1.00983'>
<ele></ele>
<time>2009-08-03 19:00:00</time>
<desc></desc>
<name>nm ich</name>
<sym>Flag, Blue</sym>
</wpt>

<wpt lat='32.51506' lon='-1.00983'>
<ele></ele>
<time>2009-08-03 19:00:00</time>
<desc></desc>
<name>nm ich</name>
<sym>Flag, Blue</sym>
</wpt>

<wpt lat='32.51506' lon='-1.00983'>
<ele></ele>
<time>2009-08-03 19:00:00</time>
<desc></desc>
<name>nm ich</name>
<sym>Flag, Blue</sym>
</wpt>

<wpt lat='32.51506' lon='-1.00983'>
<ele></ele>
<time>2009-08-03 19:00:00</time>
<desc></desc>
<name>nm ich</name>
<sym>Flag, Blue</sym>
</wpt>

<wpt lat='32.51506' lon='-1.00983'>
<ele></ele>
<time>2009-08-03 19:00:00</time>
<desc></desc>
<name>nm ich</name>
<sym>Flag, Blue</sym>
</wpt>

<wpt lat='32.51506' lon='-1.00983'>
<ele></ele>
<time>2009-08-03 19:00:00</time>
<desc></desc>
<name>nm ich</name>
<sym>Flag, Blue</sym>
</wpt>

<wpt lat='32.51506' lon='-1.00983'>
<ele></ele>
<time>2009-08-03 19:00:00</time>
<desc></desc>
<name>nm ich</name>
<sym>Flag, Blue</sym>
</wpt>

<wpt lat='32.51506' lon='-1.00983'>
<ele></ele>
<time>2009-08-03 19:00:00</time>
<desc></desc>
<name>nm ich</name>
<sym>Flag, Blue</sym>
</wpt>

<wpt lat='32.51506' lon='-1.00983'>
<ele></ele>
<time>2009-08-03 19:00:00</time>
<desc></desc>
<name>nm ich</name>
<sym>Flag, Blue</sym>
</wpt>

<wpt lat='32.51506' lon='-1.00983'>
<ele></ele>
<time>2009-08-03 19:00:00</time>
<desc></desc>
<name>nm ich</name>
<sym>Flag, Blue</sym>
</wpt>

<wpt lat='32.51506' lon='-1.00983'>
<ele></ele>
<time>2009-08-03 19:00:00</time>
<desc></desc>
<name>nm ich</name>
<sym>Flag, Blue</sym>
</wpt>

<wpt lat='32.51506' lon='-1.00983'>
<ele></ele>
<time>2009-08-03 19:00:00</time>
<desc></desc>
<name>nm ich</name>
<sym>Flag, Blue</sym>
</wpt>

<wpt lat='32.51506' lon='-1.00983'>
<ele></ele>
<time>2009-08-03 19:00:00</time>
<desc></desc>
<name>nm ich</name>
<sym>Flag, Blue</sym>
</wpt>

<wpt lat='32.51506' lon='-1.00983'>
<ele></ele>
<time>2009-08-03 19:00:00</time>
<desc></desc>
<name>nm ich</name>
<sym>Flag, Blue</sym>
</wpt>

<wpt lat='32.51506' lon='-1.00983'>
<ele></ele>
<time>2009-08-03 19:00:00</time>
<desc></desc>
<name>nm ich</name>
<sym>Flag, Blue</sym>
</wpt>

<wpt lat='32.51506' lon='-1.00983'>
<ele></ele>
<time>2009-08-03 19:00:00</time>
<desc></desc>
<name>nm ich</name>
<sym>Flag, Blue</sym>
</wpt>

<wpt lat='32.51506' lon='-1.00983'>
<ele></ele>
<time>2009-08-03 19:00:00</time>
<desc></desc>
<name>nm ich</name>
<sym>Flag, Blue</sym>
</wpt>

<wpt lat='32.51506' lon='-1.00983'>
<ele></ele>
<time>2009-08-03 19:00:00</time>
<desc></desc>
<name>nm ich</name>
<sym>Flag, Blue</sym>
</wpt>

<wpt lat='32.51506' lon='-1.00983'>
<ele></ele>
<time>2009-08-03 19:00:00</time>
<desc></desc>
<name>nm ich</name>
<sym>Flag, Blue</sym>
</wpt>

<wpt lat='32.51506' lon='-1.00983'>
<ele></ele>
<time>2009-08-03 19:00:00</time>
<desc></desc>
<name>nm ich</name>
<sym>Flag, Blue</sym>
</wpt>

<wpt lat='32.51506' lon='-1.00983'>
<ele></ele>
<time>2009-08-03 19:00:00</time>
<desc></desc>
<name>nm ich</name>
<sym>Flag, Blue</sym>
</wpt>

<wpt lat='32.51506' lon='-1.00983'>
<ele></ele>
<time>2009-08-03 19:00:00</time>
<desc></desc>
<name>nm ich</name>
<sym>Flag, Blue</sym>
</wpt>

<wpt lat='32.51506' lon='-1.00983'>
<ele></ele>
<time>2009-08-03 19:00:00</time>
<desc></desc>
<name>nm ich</name>
<sym>Flag, Blue</sym>
</wpt>

<wpt lat='32.51506' lon='-1.00983'>
<ele></ele>
<time>2009-08-03 19:00:00</time>
<desc></desc>
<name>nm ich</name>
<sym>Flag, Blue</sym>
</wpt>

<wpt lat='32.51506' lon='-1.00983'>
<ele></ele>
<time>2009-08-03 19:00:00</time>
<desc></desc>
<name>nm ich</name>
<sym>Flag, Blue</sym>
</wpt>

<wpt lat='32.80970' lon='-1.67328'>
<ele></ele>
<time>2009-08-20 00:00:00</time>
<desc></desc>
<name>nm chott tigri</name>
<sym>Flag, Blue</sym>
</wpt>

<wpt lat='32.80970' lon='-1.67328'>
<ele></ele>
<time>2009-08-20 00:00:00</time>
<desc></desc>
<name>nm chott tigri</name>
<sym>Flag, Blue</sym>
</wpt>

<wpt lat='32.80970' lon='-1.67328'>
<ele></ele>
<time>2009-08-20 00:00:00</time>
<desc></desc>
<name>nm chott tigri</name>
<sym>Flag, Blue</sym>
</wpt>

<wpt lat='32.80970' lon='-1.67328'>
<ele></ele>
<time>2009-08-20 00:00:00</time>
<desc></desc>
<name>nm chott tigri</name>
<sym>Flag, Blue</sym>
</wpt>

<wpt lat='32.80970' lon='-1.67328'>
<ele></ele>
<time>2009-08-20 00:00:00</time>
<desc></desc>
<name>nm chott tigri</name>
<sym>Flag, Blue</sym>
</wpt>

<wpt lat='32.80970' lon='-1.67328'>
<ele></ele>
<time>2009-08-20 00:00:00</time>
<desc></desc>
<name>nm chott tigri</name>
<sym>Flag, Blue</sym>
</wpt>

<wpt lat='33.56919' lon='-3.77324'>
<ele></ele>
<time>2009-08-31 19:00:00</time>
<desc></desc>
<name>kehf tachourouint</name>
<sym>Flag, Blue</sym>
</wpt>

<wpt lat='33.56919' lon='-3.77324'>
<ele></ele>
<time>2009-08-31 19:00:00</time>
<desc></desc>
<name>kehf tachourouint</name>
<sym>Flag, Blue</sym>
</wpt>

<wpt lat='33.99922' lon='-2.06979'>
<ele></ele>
<time>2009-08-20 19:00:00</time>
<desc></desc>
<name>oued berguem</name>
<sym>Flag, Blue</sym>
</wpt>

<wpt lat='32.32772' lon='-2.80664'>
<ele></ele>
<time>2009-08-25 19:00:00</time>
<desc></desc>
<name>nm jbel qob</name>
<sym>Flag, Blue</sym>
</wpt>

<wpt lat='32.32772' lon='-2.80664'>
<ele></ele>
<time>2009-08-25 19:00:00</time>
<desc></desc>
<name>nm jbel qob</name>
<sym>Flag, Blue</sym>
</wpt>

<wpt lat='32.32772' lon='-2.80664'>
<ele></ele>
<time>2009-08-25 19:00:00</time>
<desc></desc>
<name>nm jbel qob</name>
<sym>Flag, Blue</sym>
</wpt>

<wpt lat='32.32772' lon='-2.80664'>
<ele></ele>
<time>2009-08-25 19:00:00</time>
<desc></desc>
<name>nm jbel qob</name>
<sym>Flag, Blue</sym>
</wpt>

<wpt lat='32.32772' lon='-2.80664'>
<ele></ele>
<time>2009-08-25 19:00:00</time>
<desc></desc>
<name>nm jbel qob</name>
<sym>Flag, Blue</sym>
</wpt>

<wpt lat='32.32772' lon='-2.80664'>
<ele></ele>
<time>2009-08-25 19:00:00</time>
<desc></desc>
<name>nm jbel qob</name>
<sym>Flag, Blue</sym>
</wpt>

<wpt lat='32.32772' lon='-2.80664'>
<ele></ele>
<time>2009-08-25 19:00:00</time>
<desc></desc>
<name>nm jbel qob</name>
<sym>Flag, Blue</sym>
</wpt>

<wpt lat='32.32772' lon='-2.80664'>
<ele></ele>
<time>2009-08-25 19:00:00</time>
<desc></desc>
<name>nm jbel qob</name>
<sym>Flag, Blue</sym>
</wpt>

<wpt lat='32.32772' lon='-2.80664'>
<ele></ele>
<time>2009-08-26 00:00:00</time>
<desc></desc>
<name>nm jbel qob</name>
<sym>Flag, Blue</sym>
</wpt>

<wpt lat='32.32772' lon='-2.80664'>
<ele></ele>
<time>2009-08-26 00:00:00</time>
<desc></desc>
<name>nm jbel qob</name>
<sym>Flag, Blue</sym>
</wpt>

<wpt lat='32.32772' lon='-2.80664'>
<ele></ele>
<time>2009-08-26 00:00:00</time>
<desc></desc>
<name>nm jbel qob</name>
<sym>Flag, Blue</sym>
</wpt>

<wpt lat='32.32772' lon='-2.80664'>
<ele></ele>
<time>2009-08-26 00:00:00</time>
<desc></desc>
<name>nm jbel qob</name>
<sym>Flag, Blue</sym>
</wpt>

<wpt lat='32.32772' lon='-2.80664'>
<ele></ele>
<time>2009-08-26 00:00:00</time>
<desc></desc>
<name>nm jbel qob</name>
<sym>Flag, Blue</sym>
</wpt>

<wpt lat='32.32772' lon='-2.80664'>
<ele></ele>
<time>2009-08-26 00:00:00</time>
<desc></desc>
<name>nm jbel qob</name>
<sym>Flag, Blue</sym>
</wpt>

<wpt lat='32.32772' lon='-2.80664'>
<ele></ele>
<time>2009-08-26 00:00:00</time>
<desc></desc>
<name>nm jbel qob</name>
<sym>Flag, Blue</sym>
</wpt>

<wpt lat='32.32772' lon='-2.80664'>
<ele></ele>
<time>2009-08-26 00:00:00</time>
<desc></desc>
<name>nm jbel qob</name>
<sym>Flag, Blue</sym>
</wpt>

<wpt lat='32.32772' lon='-2.80664'>
<ele></ele>
<time>2009-08-26 00:00:00</time>
<desc></desc>
<name>nm jbel qob</name>
<sym>Flag, Blue</sym>
</wpt>

<wpt lat='32.32772' lon='-2.80664'>
<ele></ele>
<time>2009-08-26 00:00:00</time>
<desc></desc>
<name>nm jbel qob</name>
<sym>Flag, Blue</sym>
</wpt>

<wpt lat='32.32772' lon='-2.80664'>
<ele></ele>
<time>2009-08-26 00:00:00</time>
<desc></desc>
<name>nm jbel qob</name>
<sym>Flag, Blue</sym>
</wpt>

<wpt lat='32.32772' lon='-2.80664'>
<ele></ele>
<time>2009-08-26 00:00:00</time>
<desc></desc>
<name>nm jbel qob</name>
<sym>Flag, Blue</sym>
</wpt>

<wpt lat='32.32772' lon='-2.80664'>
<ele></ele>
<time>2009-08-26 00:00:00</time>
<desc></desc>
<name>nm jbel qob</name>
<sym>Flag, Blue</sym>
</wpt>

<wpt lat='32.98139' lon='-3.88893'>
<ele></ele>
<time>2008-07-10 20:45:00</time>
<desc></desc>
<name>nm tidarine</name>
<sym>Flag, Blue</sym>
</wpt>

<wpt lat='32.98139' lon='-3.88893'>
<ele></ele>
<time>2008-07-10 20:45:00</time>
<desc></desc>
<name>nm tidarine</name>
<sym>Flag, Blue</sym>
</wpt>

<wpt lat='32.61308' lon='-2.29591'>
<ele></ele>
<time>2007-05-18 00:00:00</time>
<desc></desc>
<name>nm n'sissa</name>
<sym>Flag, Blue</sym>
</wpt>

<wpt lat='32.61308' lon='-2.29591'>
<ele></ele>
<time>2007-05-18 00:00:00</time>
<desc></desc>
<name>nm n'sissa</name>
<sym>Flag, Blue</sym>
</wpt>

<wpt lat='32.27808' lon='-2.02152'>
<ele></ele>
<time>2010-09-21 18:30:00</time>
<desc></desc>
<name>kehf adbaba</name>
<sym>Flag, Blue</sym>
</wpt>

<wpt lat='32.27808' lon='-2.02152'>
<ele></ele>
<time>2010-09-21 18:30:00</time>
<desc></desc>
<name>kehf adbaba</name>
<sym>Flag, Blue</sym>
</wpt>

<wpt lat='32.27808' lon='-2.02152'>
<ele></ele>
<time>2010-09-21 18:30:00</time>
<desc></desc>
<name>kehf adbaba</name>
<sym>Flag, Blue</sym>
</wpt>

<wpt lat='32.27808' lon='-2.02152'>
<ele></ele>
<time>2010-09-21 18:30:00</time>
<desc></desc>
<name>kehf adbaba</name>
<sym>Flag, Blue</sym>
</wpt>

<wpt lat='32.27808' lon='-2.02152'>
<ele></ele>
<time>2010-09-21 18:30:00</time>
<desc></desc>
<name>kehf adbaba</name>
<sym>Flag, Blue</sym>
</wpt>

<wpt lat='32.27808' lon='-2.02152'>
<ele></ele>
<time>2010-09-21 18:30:00</time>
<desc></desc>
<name>kehf adbaba</name>
<sym>Flag, Blue</sym>
</wpt>

<wpt lat='32.27808' lon='-2.02152'>
<ele></ele>
<time>2010-09-22 00:00:00</time>
<desc></desc>
<name>kehf adbaba</name>
<sym>Flag, Blue</sym>
</wpt>

<wpt lat='32.27808' lon='-2.02152'>
<ele></ele>
<time>2010-09-22 00:00:00</time>
<desc></desc>
<name>kehf adbaba</name>
<sym>Flag, Blue</sym>
</wpt>

<wpt lat='29.72124' lon='-7.65661'>
<ele></ele>
<time>2011-05-31 18:52:00</time>
<desc></desc>
<name>nm boulaaraiche</name>
<sym>Flag, Blue</sym>
</wpt>

<wpt lat='29.49452' lon='-8.00029'>
<ele></ele>
<time>2011-08-15 19:00:00</time>
<desc></desc>
<name>nm Tiggane</name>
<sym>Flag, Blue</sym>
</wpt>

<wpt lat='29.49452' lon='-8.00029'>
<ele></ele>
<time>2011-08-15 19:00:00</time>
<desc></desc>
<name>nm Tiggane</name>
<sym>Flag, Blue</sym>
</wpt>

<wpt lat='29.81277' lon='-7.98925'>
<ele></ele>
<time>2011-08-16 19:00:00</time>
<desc></desc>
<name>None</name>
<sym>Flag, Blue</sym>
</wpt>

<wpt lat='29.81277' lon='-7.98925'>
<ele></ele>
<time>2011-08-17 00:00:01</time>
<desc></desc>
<name>None</name>
<sym>Flag, Blue</sym>
</wpt>

<wpt lat='29.81277' lon='-7.98925'>
<ele></ele>
<time>2011-08-17 00:00:01</time>
<desc></desc>
<name>None</name>
<sym>Flag, Blue</sym>
</wpt>

<wpt lat='29.96985' lon='-7.34755'>
<ele></ele>
<time>2011-08-12 19:00:00</time>
<desc></desc>
<name>nm timjerjt</name>
<sym>Flag, Blue</sym>
</wpt>

<wpt lat='32.91435' lon='-3.35805'>
<ele></ele>
<time>2012-07-17 19:00:00</time>
<desc></desc>
<name>oued kaddou</name>
<sym>Flag, Blue</sym>
</wpt>

<wpt lat='32.91435' lon='-3.35805'>
<ele></ele>
<time>2012-07-17 19:00:00</time>
<desc></desc>
<name>oued kaddou</name>
<sym>Flag, Blue</sym>
</wpt>

<wpt lat='32.91435' lon='-3.35805'>
<ele></ele>
<time>2012-07-17 19:00:00</time>
<desc></desc>
<name>oued kaddou</name>
<sym>Flag, Blue</sym>
</wpt>

<wpt lat='32.91435' lon='-3.35805'>
<ele></ele>
<time>2012-07-17 19:00:00</time>
<desc></desc>
<name>oued kaddou</name>
<sym>Flag, Blue</sym>
</wpt>

<wpt lat='32.91435' lon='-3.35805'>
<ele></ele>
<time>2012-07-17 19:00:00</time>
<desc></desc>
<name>oued kaddou</name>
<sym>Flag, Blue</sym>
</wpt>

<wpt lat='32.91435' lon='-3.35805'>
<ele></ele>
<time>2012-07-17 19:00:00</time>
<desc></desc>
<name>oued kaddou</name>
<sym>Flag, Blue</sym>
</wpt>

<wpt lat='32.91435' lon='-3.35805'>
<ele></ele>
<time>2012-07-17 19:00:00</time>
<desc></desc>
<name>oued kaddou</name>
<sym>Flag, Blue</sym>
</wpt>

<wpt lat='32.91435' lon='-3.35805'>
<ele></ele>
<time>2012-07-17 19:00:00</time>
<desc></desc>
<name>oued kaddou</name>
<sym>Flag, Blue</sym>
</wpt>

<wpt lat='32.91435' lon='-3.35805'>
<ele></ele>
<time>2012-07-17 19:00:00</time>
<desc></desc>
<name>oued kaddou</name>
<sym>Flag, Blue</sym>
</wpt>

<wpt lat='32.91435' lon='-3.35805'>
<ele></ele>
<time>2012-07-17 19:00:00</time>
<desc></desc>
<name>oued kaddou</name>
<sym>Flag, Blue</sym>
</wpt>

<wpt lat='32.91435' lon='-3.35805'>
<ele></ele>
<time>2012-07-17 19:00:00</time>
<desc></desc>
<name>oued kaddou</name>
<sym>Flag, Blue</sym>
</wpt>

<wpt lat='32.91435' lon='-3.35805'>
<ele></ele>
<time>2012-07-17 19:00:00</time>
<desc></desc>
<name>oued kaddou</name>
<sym>Flag, Blue</sym>
</wpt>

<wpt lat='32.91435' lon='-3.35805'>
<ele></ele>
<time>2012-07-17 19:00:00</time>
<desc></desc>
<name>oued kaddou</name>
<sym>Flag, Blue</sym>
</wpt>

<wpt lat='32.91435' lon='-3.35805'>
<ele></ele>
<time>2012-07-17 19:00:00</time>
<desc></desc>
<name>oued kaddou</name>
<sym>Flag, Blue</sym>
</wpt>

<wpt lat='32.91435' lon='-3.35805'>
<ele></ele>
<time>2012-07-17 19:00:00</time>
<desc></desc>
<name>oued kaddou</name>
<sym>Flag, Blue</sym>
</wpt>

<wpt lat='32.91435' lon='-3.35805'>
<ele></ele>
<time>2012-07-17 19:00:00</time>
<desc></desc>
<name>oued kaddou</name>
<sym>Flag, Blue</sym>
</wpt>

<wpt lat='32.91435' lon='-3.35805'>
<ele></ele>
<time>2012-07-17 19:00:00</time>
<desc></desc>
<name>oued kaddou</name>
<sym>Flag, Blue</sym>
</wpt>

<wpt lat='32.91435' lon='-3.35805'>
<ele></ele>
<time>2012-07-17 19:00:00</time>
<desc></desc>
<name>oued kaddou</name>
<sym>Flag, Blue</sym>
</wpt>

<wpt lat='32.91435' lon='-3.35805'>
<ele></ele>
<time>2012-07-18 00:01:00</time>
<desc></desc>
<name>oued kaddou</name>
<sym>Flag, Blue</sym>
</wpt>

<wpt lat='32.91435' lon='-3.35805'>
<ele></ele>
<time>2012-07-18 00:01:00</time>
<desc></desc>
<name>oued kaddou</name>
<sym>Flag, Blue</sym>
</wpt>

<wpt lat='32.91435' lon='-3.35805'>
<ele></ele>
<time>2012-07-18 00:01:00</time>
<desc></desc>
<name>oued kaddou</name>
<sym>Flag, Blue</sym>
</wpt>

<wpt lat='32.91435' lon='-3.35805'>
<ele></ele>
<time>2012-07-18 00:01:00</time>
<desc></desc>
<name>oued kaddou</name>
<sym>Flag, Blue</sym>
</wpt>

<wpt lat='32.91435' lon='-3.35805'>
<ele></ele>
<time>2012-07-18 00:01:00</time>
<desc></desc>
<name>oued kaddou</name>
<sym>Flag, Blue</sym>
</wpt>

<wpt lat='32.91435' lon='-3.35805'>
<ele></ele>
<time>2012-07-18 00:01:00</time>
<desc></desc>
<name>oued kaddou</name>
<sym>Flag, Blue</sym>
</wpt>

<wpt lat='32.91435' lon='-3.35805'>
<ele></ele>
<time>2012-07-18 00:01:00</time>
<desc></desc>
<name>oued kaddou</name>
<sym>Flag, Blue</sym>
</wpt>

<wpt lat='32.91435' lon='-3.35805'>
<ele></ele>
<time>2012-07-18 00:01:00</time>
<desc></desc>
<name>oued kaddou</name>
<sym>Flag, Blue</sym>
</wpt>

<wpt lat='32.91435' lon='-3.35805'>
<ele></ele>
<time>2012-07-18 00:01:00</time>
<desc></desc>
<name>oued kaddou</name>
<sym>Flag, Blue</sym>
</wpt>

<wpt lat='32.91435' lon='-3.35805'>
<ele></ele>
<time>2012-07-18 00:01:00</time>
<desc></desc>
<name>oued kaddou</name>
<sym>Flag, Blue</sym>
</wpt>

<wpt lat='32.91435' lon='-3.35805'>
<ele></ele>
<time>2012-07-18 00:01:00</time>
<desc></desc>
<name>oued kaddou</name>
<sym>Flag, Blue</sym>
</wpt>

<wpt lat='32.91435' lon='-3.35805'>
<ele></ele>
<time>2012-07-18 00:01:00</time>
<desc></desc>
<name>oued kaddou</name>
<sym>Flag, Blue</sym>
</wpt>

<wpt lat='32.91435' lon='-3.35805'>
<ele></ele>
<time>2012-07-18 00:01:00</time>
<desc></desc>
<name>oued kaddou</name>
<sym>Flag, Blue</sym>
</wpt>

<wpt lat='32.91435' lon='-3.35805'>
<ele></ele>
<time>2012-07-18 00:01:00</time>
<desc></desc>
<name>oued kaddou</name>
<sym>Flag, Blue</sym>
</wpt>

<wpt lat='32.91435' lon='-3.35805'>
<ele></ele>
