<?xml version="1.0" encoding="UTF-8" standalone="no" ?>
<gpx xmlns="http://www.topografix.com/GPX/1/1" creator="byHand" version="1.1" xmlns:xsi="http://www.w3.org/2001/XMLSchema-instance" xsi:schemaLocation="http://www.topografix.com/GPX/1/1 http://www.topografix.com/GPX/1/1/gpx.xsd">

<wpt lat='29.83936' lon='-7.21223'>
<ele></ele>
<time>2010-10-24 19:00:00</time>
<desc></desc>
<name>oued maleh</name>
<sym>Flag, Blue</sym>
</wpt>

<wpt lat='29.83936' lon='-7.21223'>
<ele></ele>
<time>2010-10-24 19:00:00</time>
<desc></desc>
<name>oued maleh</name>
<sym>Flag, Blue</sym>
</wpt>

<wpt lat='29.83936' lon='-7.21223'>
<ele></ele>
<time>2010-10-24 19:00:00</time>
<desc></desc>
<name>oued maleh</name>
<sym>Flag, Blue</sym>
</wpt>

<wpt lat='29.83936' lon='-7.21223'>
<ele></ele>
<time>2010-10-24 19:00:00</time>
<desc></desc>
<name>oued maleh</name>
<sym>Flag, Blue</sym>
</wpt>

<wpt lat='29.91034' lon='-7.32923'>
<ele></ele>
<time>2011-08-14 00:00:01</time>
<desc></desc>
<name>oued tissint</name>
<sym>Flag, Blue</sym>
</wpt>

<wpt lat='29.91034' lon='-7.32923'>
<ele></ele>
<time>2011-08-14 00:00:01</time>
<desc></desc>
<name>oued tissint</name>
<sym>Flag, Blue</sym>
</wpt>

<wpt lat='29.91034' lon='-7.32923'>
<ele></ele>
<time>2011-08-14 00:00:01</time>
<desc></desc>
<name>oued tissint</name>
<sym>Flag, Blue</sym>
</wpt>

<wpt lat='29.91034' lon='-7.32923'>
<ele></ele>
<time>2011-08-14 00:00:01</time>
<desc></desc>
<name>oued tissint</name>
<sym>Flag, Blue</sym>
</wpt>

<wpt lat='29.74121' lon='-7.96497'>
<ele></ele>
<time>2011-08-20 19:00:00</time>
<desc></desc>
<name>None</name>
<sym>Flag, Blue</sym>
</wpt>

<wpt lat='29.70845' lon='-7.99699'>
<ele></ele>
<time>2011-08-18 00:00:01</time>
<desc></desc>
<name>None</name>
<sym>Flag, Blue</sym>
</wpt>

<wpt lat='29.70845' lon='-7.99699'>
<ele></ele>
<time>2011-08-18 00:00:01</time>
<desc></desc>
<name>None</name>
<sym>Flag, Blue</sym>
</wpt>

<wpt lat='29.70845' lon='-7.99699'>
<ele></ele>
<time>2011-08-18 00:00:01</time>
<desc></desc>
<name>None</name>
<sym>Flag, Blue</sym>
</wpt>

<wpt lat='29.87512' lon='-6.71120'>
<ele></ele>
<time>2011-08-11 00:00:01</time>
<desc></desc>
<name>nm loumkil</name>
<sym>Flag, Blue</sym>
</wpt>

<wpt lat='29.87512' lon='-6.71120'>
<ele></ele>
<time>2011-08-11 00:00:01</time>
<desc></desc>
<name>nm loumkil</name>
<sym>Flag, Blue</sym>
</wpt>

<wpt lat='29.87512' lon='-6.71120'>
<ele></ele>
<time>2011-08-11 00:00:01</time>
<desc></desc>
<name>nm loumkil</name>
<sym>Flag, Blue</sym>
</wpt>

<wpt lat='29.87512' lon='-6.71120'>
<ele></ele>
<time>2011-08-11 00:00:01</time>
<desc></desc>
<name>nm loumkil</name>
<sym>Flag, Blue</sym>
</wpt>

<wpt lat='29.87512' lon='-6.71120'>
<ele></ele>
<time>2011-08-11 00:00:01</time>
<desc></desc>
<name>nm loumkil</name>
<sym>Flag, Blue</sym>
</wpt>

<wpt lat='29.87512' lon='-6.71120'>
<ele></ele>
<time>2011-08-11 00:00:01</time>
<desc></desc>
<name>nm loumkil</name>
<sym>Flag, Blue</sym>
</wpt>

<wpt lat='29.87512' lon='-6.71120'>
<ele></ele>
<time>2011-08-11 00:00:01</time>
<desc></desc>
<name>nm loumkil</name>
<sym>Flag, Blue</sym>
</wpt>

<wpt lat='29.72124' lon='-7.65661'>
<ele></ele>
<time>2011-05-31 18:52:00</time>
<desc></desc>
<name>nm boulaaraiche</name>
<sym>Flag, Blue</sym>
</wpt>

<wpt lat='29.72124' lon='-7.65661'>
<ele></ele>
<time>2011-05-31 18:52:00</time>
<desc></desc>
<name>nm boulaaraiche</name>
<sym>Flag, Blue</sym>
</wpt>

<wpt lat='29.49452' lon='-8.00029'>
<ele></ele>
<time>2011-08-15 19:00:00</time>
<desc></desc>
<name>nm Tiggane</name>
<sym>Flag, Blue</sym>
</wpt>

<wpt lat='29.49452' lon='-8.00029'>
<ele></ele>
<time>2011-08-16 00:00:01</time>
<desc></desc>
<name>nm Tiggane</name>
<sym>Flag, Blue</sym>
</wpt>

<wpt lat='29.49452' lon='-8.00029'>
<ele></ele>
<time>2011-08-16 00:00:01</time>
<desc></desc>
<name>nm Tiggane</name>
<sym>Flag, Blue</sym>
</wpt>

<wpt lat='29.49452' lon='-8.00029'>
<ele></ele>
<time>2011-08-16 00:00:01</time>
<desc></desc>
<name>nm Tiggane</name>
<sym>Flag, Blue</sym>
</wpt>

<wpt lat='29.49452' lon='-8.00029'>
<ele></ele>
<time>2011-08-16 00:00:01</time>
<desc></desc>
<name>nm Tiggane</name>
<sym>Flag, Blue</sym>
</wpt>

<wpt lat='29.81277' lon='-7.98925'>
<ele></ele>
<time>2011-08-16 19:00:00</time>
<desc></desc>
<name>None</name>
<sym>Flag, Blue</sym>
</wpt>

<wpt lat='29.81277' lon='-7.98925'>
<ele></ele>
<time>2011-08-16 19:00:00</time>
<desc></desc>
<name>None</name>
<sym>Flag, Blue</sym>
</wpt>

<wpt lat='29.81277' lon='-7.98925'>
<ele></ele>
<time>2011-08-16 19:00:00</time>
<desc></desc>
<name>None</name>
<sym>Flag, Blue</sym>
</wpt>

<wpt lat='29.81277' lon='-7.98925'>
<ele></ele>
<time>2011-08-17 00:00:01</time>
<desc></desc>
<name>None</name>
<sym>Flag, Blue</sym>
</wpt>

<wpt lat='29.81277' lon='-7.98925'>
<ele></ele>
<time>2011-08-17 00:00:01</time>
<desc></desc>
<name>None</name>
<sym>Flag, Blue</sym>
</wpt>

<wpt lat='29.96985' lon='-7.34755'>
<ele></ele>
<time>2011-08-12 19:00:00</time>
<desc></desc>
<name>nm timjerjt</name>
<sym>Flag, Blue</sym>
</wpt>

<wpt lat='29.96985' lon='-7.34755'>
<ele></ele>
<time>2011-08-12 19:00:00</time>
<desc></desc>
<name>nm timjerjt</name>
<sym>Flag, Blue</sym>
</wpt>

<wpt lat='29.96985' lon='-7.34755'>
<ele></ele>
<time>2011-08-13 00:00:01</time>
<desc></desc>
<name>None</name>
<sym>Flag, Blue</sym>
</wpt>

<wpt lat='29.83871' lon='-7.20971'>
<ele></ele>
<time>2011-08-12 00:00:01</time>
<desc></desc>
<name>oued maleh</name>
<sym>Flag, Blue</sym>
</wpt>

<wpt lat='29.83871' lon='-7.20971'>
<ele></ele>
<time>2011-08-12 00:00:01</time>
<desc></desc>
<name>oued maleh</name>
<sym>Flag, Blue</sym>
</wpt>

<wpt lat='29.74309' lon='-7.96899'>
<ele></ele>
<time>2007-10-02 17:50:00</time>
<desc></desc>
<name>None</name>
<sym>Flag, Blue</sym>
</wpt>

<wpt lat='29.91034' lon='-7.32932'>
<ele></ele>
<time>2010-11-12 19:00:00</time>
<desc></desc>
<name>oued tissint</name>
<sym>Flag, Blue</sym>
</wpt>

<wpt lat='29.91034' lon='-7.32932'>
<ele></ele>
<time>2010-11-12 19:00:00</time>
<desc></desc>
<name>oued tissint</name>
<sym>Flag, Blue</sym>
</wpt>

<wpt lat='29.91034' lon='-7.32932'>
<ele></ele>
<time>2010-11-12 19:00:00</time>
<desc></desc>
<name>oued tissint</name>
<sym>Flag, Blue</sym>
</wpt>

<wpt lat='29.91034' lon='-7.32932'>
<ele></ele>
<time>2010-11-12 19:00:00</time>
<desc></desc>
<name>oued tissint</name>
<sym>Flag, Blue</sym>
</wpt>

<wpt lat='29.91034' lon='-7.32932'>
<ele></ele>
<time>2010-11-12 19:00:00</time>
<desc></desc>
<name>oued tissint</name>
<sym>Flag, Blue</sym>
</wpt>

<wpt lat='29.91034' lon='-7.32932'>
<ele></ele>
<time>2010-11-12 19:00:00</time>
<desc></desc>
<name>oued tissint</name>
<sym>Flag, Blue</sym>
</wpt>

<wpt lat='29.91034' lon='-7.32932'>
<ele></ele>
<time>2010-11-12 19:00:00</time>
<desc></desc>
<name>oued tissint</name>
<sym>Flag, Blue</sym>
</wpt>

<wpt lat='29.91034' lon='-7.32932'>
<ele></ele>
<time>2010-11-12 19:00:00</time>
<desc></desc>
<name>oued tissint</name>
<sym>Flag, Blue</sym>
</wpt>

<wpt lat='29.91034' lon='-7.32932'>
<ele></ele>
<time>2010-11-12 19:00:00</time>
<desc></desc>
<name>oued tissint</name>
<sym>Flag, Blue</sym>
</wpt>

<wpt lat='29.91034' lon='-7.32932'>
<ele></ele>
<time>2010-11-12 19:00:00</time>
<desc></desc>
<name>oued tissint</name>
<sym>Flag, Blue</sym>
</wpt>

<wpt lat='29.91034' lon='-7.32932'>
<ele></ele>
<time>2010-11-12 19:00:00</time>
<desc></desc>
<name>oued tissint</name>
<sym>Flag, Blue</sym>
</wpt>

<wpt lat='29.91034' lon='-7.32932'>
<ele></ele>
<time>2010-11-12 19:00:00</time>
<desc></desc>
<name>oued tissint</name>
<sym>Flag, Blue</sym>
</wpt>

<wpt lat='29.91034' lon='-7.32932'>
<ele></ele>
<time>2010-11-12 19:00:00</time>
<desc></desc>
<name>oued tissint</name>
<sym>Flag, Blue</sym>
</wpt>

<wpt lat='29.91034' lon='-7.32932'>
<ele></ele>
<time>2010-11-12 19:00:00</time>
<desc></desc>
<name>oued tissint</name>
<sym>Flag, Blue</sym>
</wpt>

<wpt lat='29.91034' lon='-7.32932'>
<ele></ele>
<time>2010-11-12 19:00:00</time>
<desc></desc>
<name>oued tissint</name>
<sym>Flag, Blue</sym>
</wpt>

<wpt lat='29.91034' lon='-7.32932'>
<ele></ele>
<time>2010-11-12 19:00:00</time>
<desc></desc>
<name>oued tissint</name>
<sym>Flag, Blue</sym>
</wpt>

<wpt lat='29.91034' lon='-7.32932'>
<ele></ele>
<time>2010-11-12 19:00:00</time>
<desc></desc>
<name>oued tissint</name>
<sym>Flag, Blue</sym>
</wpt>

<wpt lat='29.91034' lon='-7.32923'>
<ele></ele>
<time>2010-11-06 19:00:00</time>
<desc></desc>
<name>oued tissint</name>
<sym>Flag, Blue</sym>
</wpt>

<wpt lat='29.91034' lon='-7.32923'>
<ele></ele>
<time>2010-11-06 19:00:00</time>
<desc></desc>
<name>oued tissint</name>
<sym>Flag, Blue</sym>
</wpt>

<wpt lat='29.91034' lon='-7.32923'>
<ele></ele>
<time>2010-11-06 19:00:00</time>
<desc></desc>
<name>oued tissint</name>
<sym>Flag, Blue</sym>
</wpt>

<wpt lat='29.91034' lon='-7.32923'>
<ele></ele>
<time>2010-11-06 19:00:00</time>
<desc></desc>
<name>oued tissint</name>
<sym>Flag, Blue</sym>
</wpt>

<wpt lat='29.91034' lon='-7.32923'>
<ele></ele>
<time>2010-11-06 19:00:00</time>
<desc></desc>
<name>oued tissint</name>
<sym>Flag, Blue</sym>
</wpt>

<wpt lat='29.91034' lon='-7.32923'>
<ele></ele>
<time>2010-11-06 19:00:00</time>
<desc></desc>
<name>oued tissint</name>
<sym>Flag, Blue</sym>
</wpt>

<wpt lat='29.91034' lon='-7.32923'>
<ele></ele>
<time>2010-11-06 19:00:00</time>
<desc></desc>
<name>oued tissint</name>
<sym>Flag, Blue</sym>
</wpt>

<wpt lat='29.91034' lon='-7.32923'>
<ele></ele>
<time>2010-11-06 19:00:00</time>
<desc></desc>
<name>oued tissint</name>
<sym>Flag, Blue</sym>
</wpt>

<wpt lat='29.91034' lon='-7.32923'>
<ele></ele>
<time>2010-11-06 19:00:00</time>
<desc></desc>
<name>oued tissint</name>
<sym>Flag, Blue</sym>
</wpt>

<wpt lat='29.91034' lon='-7.32923'>
<ele></ele>
<time>2010-11-06 19:00:00</time>
<desc></desc>
<name>oued tissint</name>
<sym>Flag, Blue</sym>
</wpt>

<wpt lat='29.91034' lon='-7.32923'>
<ele></ele>
<time>2010-11-06 19:00:00</time>
<desc></desc>
<name>oued tissint</name>
<sym>Flag, Blue</sym>
</wpt>

<wpt lat='29.91034' lon='-7.32923'>
<ele></ele>
<time>2010-11-06 19:00:00</time>
<desc></desc>
<name>oued tissint</name>
<sym>Flag, Blue</sym>
</wpt>

<wpt lat='29.91034' lon='-7.32923'>
<ele></ele>
<time>2010-11-06 19:00:00</time>
<desc></desc>
<name>oued tissint</name>
<sym>Flag, Blue</sym>
</wpt>

<wpt lat='29.91034' lon='-7.32923'>
<ele></ele>
<time>2010-11-06 19:00:00</time>
<desc></desc>
<name>oued tissint</name>
<sym>Flag, Blue</sym>
</wpt>

<wpt lat='29.91034' lon='-7.32923'>
<ele></ele>
<time>2010-11-06 19:00:00</time>
<desc></desc>
<name>oued tissint</name>
<sym>Flag, Blue</sym>
</wpt>

<wpt lat='29.91034' lon='-7.32923'>
<ele></ele>
<time>2010-11-06 19:00:00</time>
<desc></desc>
<name>oued tissint</name>
<sym>Flag, Blue</sym>
</wpt>

<wpt lat='29.94501' lon='-7.32664'>
<ele></ele>
<time>2010-11-07 19:00:00</time>
<desc></desc>
<name>nm agoulzi</name>
<sym>Flag, Blue</sym>
</wpt>

<wpt lat='29.94501' lon='-7.32664'>
<ele></ele>
<time>2010-11-07 19:00:00</time>
<desc></desc>
<name>nm agoulzi</name>
<sym>Flag, Blue</sym>
</wpt>

<wpt lat='29.94501' lon='-7.32664'>
<ele></ele>
<time>2010-11-07 19:00:00</time>
<desc></desc>
<name>nm agoulzi</name>
<sym>Flag, Blue</sym>
</wpt>

<wpt lat='29.94501' lon='-7.32664'>
<ele></ele>
<time>2010-11-07 19:00:00</time>
<desc></desc>
<name>nm agoulzi</name>
<sym>Flag, Blue</sym>
</wpt>

<wpt lat='29.49473' lon='-8.00062'>
<ele></ele>
<time>2011-05-25 19:03:00</time>
<desc></desc>
<name>nm Tiggane</name>
<sym>Flag, Blue</sym>
</wpt>

<wpt lat='29.49473' lon='-8.00062'>
<ele></ele>
<time>2011-05-25 19:03:00</time>
<desc></desc>
<name>nm Tiggane</name>
<sym>Flag, Blue</sym>
</wpt>

<wpt lat='29.49473' lon='-8.00062'>
<ele></ele>
<time>2011-05-25 19:03:00</time>
<desc></desc>
<name>nm Tiggane</name>
<sym>Flag, Blue</sym>
</wpt>

<wpt lat='29.49473' lon='-8.00062'>
<ele></ele>
<time>2011-05-25 19:03:00</time>
<desc></desc>
<name>nm Tiggane</name>
<sym>Flag, Blue</sym>
</wpt>

<wpt lat='29.94876' lon='-7.33074'>
<ele></ele>
<time>2011-05-27 19:30:00</time>
<desc></desc>
<name>nm agoulzi</name>
<sym>Flag, Blue</sym>
</wpt>

<wpt lat='29.94876' lon='-7.33074'>
<ele></ele>
<time>2011-05-27 19:30:00</time>
<desc></desc>
<name>nm agoulzi</name>
<sym>Flag, Blue</sym>
</wpt>

<wpt lat='29.94876' lon='-7.33074'>
<ele></ele>
<time>2011-05-27 19:30:00</time>
<desc></desc>
<name>nm agoulzi</name>
<sym>Flag, Blue</sym>
</wpt>

<wpt lat='29.94876' lon='-7.33074'>
<ele></ele>
<time>2011-05-27 19:30:00</time>
<desc></desc>
<name>nm agoulzi</name>
<sym>Flag, Blue</sym>
</wpt>

<wpt lat='29.94876' lon='-7.33074'>
<ele></ele>
<time>2011-05-27 19:30:00</time>
<desc></desc>
<name>nm agoulzi</name>
<sym>Flag, Blue</sym>
</wpt>

<wpt lat='30.14646' lon='-7.38580'>
<ele></ele>
<time>2011-05-29 05:02:00</time>
<desc></desc>
<name>None</name>
<sym>Flag, Blue</sym>
</wpt>

<wpt lat='30.14646' lon='-7.38580'>
<ele></ele>
<time>2011-05-29 05:02:00</time>
<desc></desc>
<name>None</name>
<sym>Flag, Blue</sym>
</wpt>

<wpt lat='30.14646' lon='-7.38580'>
<ele></ele>
<time>2011-05-29 05:02:00</time>
<desc></desc>
<name>None</name>
<sym>Flag, Blue</sym>
</wpt>

<wpt lat='30.14646' lon='-7.38580'>
<ele></ele>
<time>2011-05-29 05:02:00</time>
<desc></desc>
<name>None</name>
<sym>Flag, Blue</sym>
</wpt>

<wpt lat='30.14646' lon='-7.38580'>
<ele></ele>
<time>2011-05-29 05:02:00</time>
<desc></desc>
<name>None</name>
<sym>Flag, Blue</sym>
</wpt>

<wpt lat='30.14646' lon='-7.38580'>
<ele></ele>
<time>2011-05-29 05:02:00</time>
<desc></desc>
<name>None</name>
<sym>Flag, Blue</sym>
</wpt>

<wpt lat='29.74000' lon='-7.97642'>
<ele></ele>
<time>2011-08-18 19:00:00</time>
<desc></desc>
<name>nm tata</name>
<sym>Flag, Blue</sym>
</wpt>

<wpt lat='29.74000' lon='-7.97642'>
<ele></ele>
<time>2011-08-18 19:00:00</time>
<desc></desc>
<name>nm tata</name>
<sym>Flag, Blue</sym>
</wpt>

<wpt lat='29.74000' lon='-7.97642'>
<ele></ele>
<time>2011-08-18 19:00:00</time>
<desc></desc>
<name>nm tata</name>
<sym>Flag, Blue</sym>
</wpt>

<wpt lat='30.45420' lon='-6.95883'>
<ele></ele>
<time>2011-08-09 22:00:00</time>
<desc></desc>
<name>nm amazigh</name>
<sym>Flag, Blue</sym>
</wpt>

<wpt lat='30.45420' lon='-6.95883'>
<ele></ele>
<time>2011-08-09 22:00:00</time>
<desc></desc>
<name>nm amazigh</name>
<sym>Flag, Blue</sym>
</wpt>

<wpt lat='30.45420' lon='-6.95883'>
<ele></ele>
<time>2011-08-09 22:00:00</time>
<desc></desc>
<name>nm amazigh</name>
<sym>Flag, Blue</sym>
</wpt>

<wpt lat='30.45420' lon='-6.95883'>
<ele></ele>
<time>2011-08-10 00:00:01</time>
<desc></desc>
<name>nm amazigh</name>
<sym>Flag, Blue</sym>
</wpt>

<wpt lat='30.45420' lon='-6.95883'>
<ele></ele>
<time>2011-08-10 00:00:01</time>
<desc></desc>
<name>nm amazigh</name>
<sym>Flag, Blue</sym>
</wpt>

<wpt lat='30.45420' lon='-6.95883'>
<ele></ele>
<time>2011-08-10 00:00:01</time>
<desc></desc>
<name>nm amazigh</name>
<sym>Flag, Blue</sym>
</wpt>

<wpt lat='30.45420' lon='-6.95883'>
<ele></ele>
<time>2011-08-10 00:00:01</time>
<desc></desc>
<name>nm amazigh</name>
<sym>Flag, Blue</sym>
</wpt>

<wpt lat='30.45420' lon='-6.95883'>
<ele></ele>
<time>2011-08-10 00:00:01</time>
<desc></desc>
<name>nm amazigh</name>
<sym>Flag, Blue</sym>
</wpt>

<wpt lat='30.45420' lon='-6.95883'>
<ele></ele>
<time>2011-08-10 00:00:01</time>
<desc></desc>
<name>nm amazigh</name>
<sym>Flag, Blue</sym>
</wpt>

<wpt lat='30.45420' lon='-6.95883'>
<ele></ele>
<time>2011-08-10 00:00:01</time>
<desc></desc>
<name>nm amazigh</name>
<sym>Flag, Blue</sym>
</wpt>

<wpt lat='30.45420' lon='-6.95883'>
<ele></ele>
<time>2011-08-10 00:00:01</time>
<desc></desc>
<name>nm amazigh</name>
<sym>Flag, Blue</sym>
</wpt>

<wpt lat='29.38549' lon='-8.26087'>
<ele></ele>
<time>2011-11-01 20:00:00</time>
<desc></desc>
<name>None</name>
<sym>Flag, Blue</sym>
</wpt>

<wpt lat='29.76896' lon='-6.89955'>
<ele></ele>
<time>2010-10-28 19:00:00</time>
<desc></desc>
<name>nm tantana</name>
<sym>Flag, Blue</sym>
</wpt>

<wpt lat='29.76896' lon='-6.89955'>
<ele></ele>
<time>2010-10-28 19:00:00</time>
<desc></desc>
<name>nm tantana</name>
<sym>Flag, Blue</sym>
</wpt>

<wpt lat='29.76896' lon='-6.89955'>
<ele></ele>
<time>2010-10-28 19:00:00</time>
<desc></desc>
<name>nm tantana</name>
<sym>Flag, Blue</sym>
</wpt>

<wpt lat='29.76896' lon='-6.89955'>
<ele></ele>
<time>2010-10-28 19:00:00</time>
<desc></desc>
<name>nm tantana</name>
<sym>Flag, Blue</sym>
</wpt>

<wpt lat='29.91706' lon='-7.47807'>
<ele></ele>
<time>2011-05-23 18:15:00</time>
<desc></desc>
<name>nm boudhir</name>
<sym>Flag, Blue</sym>
</wpt>

<wpt lat='29.91706' lon='-7.47807'>
<ele></ele>
<time>2011-05-23 18:15:00</time>
<desc></desc>
<name>nm boudhir</name>
<sym>Flag, Blue</sym>
</wpt>

<wpt lat='29.91706' lon='-7.47807'>
<ele></ele>
<time>2011-05-23 18:15:00</time>
<desc></desc>
<name>nm boudhir</name>
<sym>Flag, Blue</sym>
</wpt>

<wpt lat='29.91706' lon='-7.47807'>
<ele></ele>
<time>2011-05-23 18:15:00</time>
<desc></desc>
<name>nm boudhir</name>
<sym>Flag, Blue</sym>
</wpt>

<wpt lat='29.91706' lon='-7.47807'>
<ele></ele>
<time>2011-05-23 18:15:00</time>
<desc></desc>
<name>nm boudhir</name>
<sym>Flag, Blue</sym>
</wpt>

<wpt lat='30.25786' lon='-7.05513'>
<ele></ele>
<time>2011-05-24 18:11:00</time>
<desc></desc>
<name>nm foum klit</name>
<sym>Flag, Blue</sym>
</wpt>

<wpt lat='30.25786' lon='-7.05513'>
<ele></ele>
<time>2011-05-24 18:11:00</time>
<desc></desc>
<name>nm foum klit</name>
<sym>Flag, Blue</sym>
</wpt>

<wpt lat='30.25786' lon='-7.05513'>
<ele></ele>
<time>2011-05-24 18:11:00</time>
<desc></desc>
<name>nm foum klit</name>
<sym>Flag, Blue</sym>
</wpt>

<wpt lat='30.25786' lon='-7.05513'>
<ele></ele>
<time>2011-05-24 18:11:00</time>
<desc></desc>
<name>nm foum klit</name>
<sym>Flag, Blue</sym>
</wpt>

<wpt lat='30.25786' lon='-7.05513'>
<ele></ele>
<time>2011-05-24 18:11:00</time>
<desc></desc>
<name>nm foum klit</name>
<sym>Flag, Blue</sym>
</wpt>

<wpt lat='30.06286' lon='-6.86829'>
<ele></ele>
<time>2011-05-30 20:00:00</time>
<desc></desc>
<name>None</name>
<sym>Flag, Blue</sym>
</wpt>

<wpt lat='30.06286' lon='-6.86829'>
<ele></ele>
<time>2011-05-30 20:00:00</time>
<desc></desc>
<name>None</name>
<sym>Flag, Blue</sym>
</wpt>

<wpt lat='30.06286' lon='-6.86829'>
<ele></ele>
<time>2011-05-30 20:00:00</time>
<desc></desc>
<name>None</name>
<sym>Flag, Blue</sym>
</wpt>

<wpt lat='30.06286' lon='-6.86829'>
<ele></ele>
<time>2011-05-30 20:00:00</time>
<desc></desc>
<name>None</name>
<sym>Flag, Blue</sym>
</wpt>

<wpt lat='30.06286' lon='-6.86829'>
<ele></ele>
<time>2011-05-30 20:00:00</time>
<desc></desc>
<name>None</name>
<sym>Flag, Blue</sym>
</wpt>

<wpt lat='29.91034' lon='-7.32923'>
<ele></ele>
<time>2011-08-13 19:00:00</time>
<desc></desc>
<name>oued tissint</name>
<sym>Flag, Blue</sym>
</wpt>

<wpt lat='29.91034' lon='-7.32923'>
<ele></ele>
<time>2011-08-13 19:00:00</time>
<desc></desc>
<name>oued tissint</name>
<sym>Flag, Blue</sym>
</wpt>

<wpt lat='29.91034' lon='-7.32923'>
<ele></ele>
<time>2011-08-13 19:00:00</time>
<desc></desc>
<name>oued tissint</name>
<sym>Flag, Blue</sym>
</wpt>

<wpt lat='29.91034' lon='-7.32923'>
<ele></ele>
<time>2011-08-13 19:00:00</time>
<desc></desc>
<name>oued tissint</name>
<sym>Flag, Blue</sym>
</wpt>

<wpt lat='29.91034' lon='-7.32923'>
<ele></ele>
<time>2011-08-13 19:00:00</time>
<desc></desc>
<name>oued tissint</name>
<sym>Flag, Blue</sym>
</wpt>

<wpt lat='29.91034' lon='-7.32923'>
<ele></ele>
<time>2011-08-13 19:00:00</time>
<desc></desc>
<name>oued tissint</name>
<sym>Flag, Blue</sym>
</wpt>

<wpt lat='29.91034' lon='-7.32923'>
<ele></ele>
<time>2011-08-13 19:00:00</time>
<desc></desc>
<name>oued tissint</name>
<sym>Flag, Blue</sym>
</wpt>

<wpt lat='29.72124' lon='-7.65661'>
<ele></ele>
<time>2011-08-14 19:00:00</time>
<desc></desc>
<name>None</name>
<sym>Flag, Blue</sym>
</wpt>

<wpt lat='29.72124' lon='-7.65661'>
<ele></ele>
<time>2011-08-14 19:00:00</time>
<desc></desc>
<name>None</name>
<sym>Flag, Blue</sym>
</wpt>

<wpt lat='29.72124' lon='-7.65661'>
<ele></ele>
<time>2011-08-14 19:00:00</time>
<desc></desc>
<name>None</name>
<sym>Flag, Blue</sym>
</wpt>

<wpt lat='29.43459' lon='-8.26809'>
<ele></ele>
<time>2011-08-19 19:00:00</time>
<desc></desc>
<name>nm kasbat</name>
<sym>Flag, Blue</sym>
</wpt>

<wpt lat='29.43459' lon='-8.26809'>
<ele></ele>
<time>2011-08-19 19:00:00</time>
<desc></desc>
<name>nm kasbat</name>
<sym>Flag, Blue</sym>
</wpt>

<wpt lat='29.43459' lon='-8.26809'>
<ele></ele>
<time>2011-08-19 19:00:00</time>
<desc></desc>
<name>nm kasbat</name>
<sym>Flag, Blue</sym>
</wpt>

<wpt lat='29.43459' lon='-8.26809'>
<ele></ele>
<time>2011-08-19 19:00:00</time>
<desc></desc>
<name>nm kasbat</name>
<sym>Flag, Blue</sym>
</wpt>

<wpt lat='29.43459' lon='-8.26809'>
<ele></ele>
<time>2011-08-19 19:00:00</time>
<desc></desc>
<name>nm kasbat</name>
<sym>Flag, Blue</sym>
</wpt>

<wpt lat='29.70845' lon='-7.99699'>
<ele></ele>
<time>2011-08-17 19:00:00</time>
<desc></desc>
<name>nm taghla</name>
<sym>Flag, Blue</sym>
</wpt>

<wpt lat='29.70845' lon='-7.99699'>
<ele></ele>
<time>2011-08-17 19:00:00</time>
<desc></desc>
<name>nm taghla</name>
<sym>Flag, Blue</sym>
</wpt>

<wpt lat='29.70845' lon='-7.99699'>
<ele></ele>
<time>2011-08-17 19:00:00</time>
<desc></desc>
<name>nm taghla</name>
<sym>Flag, Blue</sym>
</wpt>

<wpt lat='29.70845' lon='-7.99699'>
<ele></ele>
<time>2011-08-17 19:00:00</time>
<desc></desc>
<name>nm taghla</name>
<sym>Flag, Blue</sym>
</wpt>
</gpx>